___city_name___,___state___,___state_name___,latitude,longitude
acrelandia,ac,acre,-9.82581,-66.8972
assis brasil,ac,acre,-10.9298,-69.5738
brasileia,ac,acre,-10.995,-68.7497
bujari,ac,acre,-9.81528,-67.955
capixaba,ac,acre,-10.565999999999999,-67.686
cruzeiro do sul,ac,acre,-7.627619999999999,-72.6756
epitaciolandia,ac,acre,-11.0188,-68.7341
feijo,ac,acre,-8.170539999999999,-70.351
jordao,ac,acre,-9.43091,-71.8974
mancio lima,ac,acre,-7.616569999999999,-72.8997
manoel urbano,ac,acre,-8.83291,-69.2679
marechal thaumaturgo,ac,acre,-8.93898,-72.7997
placido de castro,ac,acre,-10.2806,-67.1371
porto acre,ac,acre,-9.581380000000001,-67.5478
porto walter,ac,acre,-8.26323,-72.7537
rio branco,ac,acre,-9.97499,-67.8243
rodrigues alves,ac,acre,-7.738639999999999,-72.661
santa rosa do purus,ac,acre,-9.44652,-70.4902
sena madureira,ac,acre,-9.06596,-68.6571
senador guiomard,ac,acre,-10.1497,-67.7362
tarauaca,ac,acre,-8.15697,-70.7722
xapuri,ac,acre,-10.6516,-68.4969
agua branca,al,alagoas,-9.262,-37.938
anadia,al,alagoas,-9.68489,-36.3078
arapiraca,al,alagoas,-9.75487,-36.6615
atalaia,al,alagoas,-9.5119,-36.0086
barra de santo antonio,al,alagoas,-9.4023,-35.5101
barra de sao miguel,al,alagoas,-9.83842,-35.9057
batalha,al,alagoas,-9.6742,-37.133
belem,al,alagoas,-9.57047,-36.4904
belo monte,al,alagoas,-9.82272,-37.277
boca da mata,al,alagoas,-9.64308,-36.2125
branquinha,al,alagoas,-9.233419999999999,-36.0162
cacimbinhas,al,alagoas,-9.40121,-36.9911
cajueiro,al,alagoas,-9.3994,-36.1559
campestre,al,alagoas,-8.84723,-35.5685
campo alegre,al,alagoas,-9.784510000000001,-36.3525
campo grande,al,alagoas,-9.95542,-36.7926
canapi,al,alagoas,-9.11932,-37.5967
capela,al,alagoas,-9.41504,-36.0826
carneiros,al,alagoas,-9.484760000000001,-37.3773
cha preta,al,alagoas,-9.2556,-36.2983
coite do noia,al,alagoas,-9.63348,-36.5845
colonia leopoldina,al,alagoas,-8.91806,-35.7214
coqueiro seco,al,alagoas,-9.63715,-35.7994
coruripe,al,alagoas,-10.1276,-36.1717
craibas,al,alagoas,-9.6178,-36.7697
delmiro gouveia,al,alagoas,-9.38534,-37.9987
dois riachos,al,alagoas,-9.38465,-37.0965
estrela de alagoas,al,alagoas,-9.390889999999999,-36.7644
feira grande,al,alagoas,-9.898589999999999,-36.6815
feliz deserto,al,alagoas,-10.2935,-36.3028
flexeiras,al,alagoas,-9.27281,-35.7139
girau do ponciano,al,alagoas,-9.884039999999999,-36.8316
ibateguara,al,alagoas,-8.97823,-35.9373
igaci,al,alagoas,-9.53768,-36.6372
igreja nova,al,alagoas,-10.1235,-36.6597
inhapi,al,alagoas,-9.22594,-37.7509
jacare dos homens,al,alagoas,-9.63545,-37.2076
jacuipe,al,alagoas,-8.83951,-35.4591
japaratinga,al,alagoas,-9.08746,-35.2634
jaramataia,al,alagoas,-9.662239999999999,-37.0046
jequia da praia,al,alagoas,-10.0133,-36.0142
joaquim gomes,al,alagoas,-9.1328,-35.7474
jundia,al,alagoas,-8.93297,-35.5669
junqueiro,al,alagoas,-9.90696,-36.4803
lagoa da canoa,al,alagoas,-9.83291,-36.7413
limoeiro de anadia,al,alagoas,-9.74098,-36.5121
maceio,al,alagoas,-9.665989999999999,-35.735
major isidoro,al,alagoas,-9.53009,-36.992
mar vermelho,al,alagoas,-9.447389999999999,-36.3881
maragogi,al,alagoas,-9.007439999999999,-35.2267
maravilha,al,alagoas,-9.23045,-37.3524
marechal deodoro,al,alagoas,-9.709710000000001,-35.8967
maribondo,al,alagoas,-9.58353,-36.3045
mata grande,al,alagoas,-9.11824,-37.7323
matriz de camaragibe,al,alagoas,-9.15437,-35.5243
messias,al,alagoas,-9.393839999999999,-35.8392
minador do negrao,al,alagoas,-9.31236,-36.8696
monteiropolis,al,alagoas,-9.60357,-37.2505
murici,al,alagoas,-9.30682,-35.9428
novo lino,al,alagoas,-8.94191,-35.664
olho dagua das flores,al,alagoas,-9.53686,-37.2971
olho dagua do casado,al,alagoas,-9.50357,-37.8301
olho dagua grande,al,alagoas,-10.0572,-36.8101
olivenca,al,alagoas,-9.51954,-37.1954
ouro branco,al,alagoas,-9.15884,-37.3556
palestina,al,alagoas,-9.67493,-37.339
palmeira dos indios,al,alagoas,-9.40568,-36.6328
pao de acucar,al,alagoas,-9.74032,-37.4403
pariconha,al,alagoas,-9.25634,-37.9988
paripueira,al,alagoas,-9.46313,-35.552
passo de camaragibe,al,alagoas,-9.24511,-35.4745
paulo jacinto,al,alagoas,-9.36792,-36.3672
penedo,al,alagoas,-10.2874,-36.5819
piacabucu,al,alagoas,-10.405999999999999,-36.434
pilar,al,alagoas,-9.60135,-35.9543
pindoba,al,alagoas,-9.47382,-36.2918
piranhas,al,alagoas,-9.624,-37.757
poco das trincheiras,al,alagoas,-9.30742,-37.2889
porto calvo,al,alagoas,-9.05195,-35.3987
porto de pedras,al,alagoas,-9.160060000000001,-35.3049
porto real do colegio,al,alagoas,-10.1849,-36.8376
quebrangulo,al,alagoas,-9.32001,-36.4692
rio largo,al,alagoas,-9.47783,-35.8394
roteiro,al,alagoas,-9.83503,-35.9782
santa luzia do norte,al,alagoas,-9.6037,-35.8232
santana do ipanema,al,alagoas,-9.36999,-37.248000000000005
santana do mundau,al,alagoas,-9.17141,-36.2176
sao bras,al,alagoas,-10.1141,-36.8522
sao jose da laje,al,alagoas,-9.012780000000001,-36.0515
sao jose da tapera,al,alagoas,-9.55768,-37.3831
sao luis do quitunde,al,alagoas,-9.31816,-35.5606
sao miguel dos campos,al,alagoas,-9.78301,-36.0971
sao miguel dos milagres,al,alagoas,-9.26493,-35.3763
sao sebastiao,al,alagoas,-9.93043,-36.559
satuba,al,alagoas,-9.56911,-35.8227
senador rui palmeira,al,alagoas,-9.46986,-37.4576
tanque darca,al,alagoas,-9.53379,-36.4366
taquarana,al,alagoas,-9.64529,-36.4928
teotonio vilela,al,alagoas,-9.91656,-36.3492
traipu,al,alagoas,-9.96262,-37.0071
uniao dos palmares,al,alagoas,-9.15921,-36.0223
vicosa,al,alagoas,-9.36763,-36.2431
alvaraes,am,amazonas,-3.22727,-64.8007
amatura,am,amazonas,-3.37455,-68.2005
anama,am,amazonas,-3.5669699999999995,-61.3963
anori,am,amazonas,-3.74603,-61.6575
apui,am,amazonas,-7.194089999999999,-59.896
atalaia do norte,am,amazonas,-4.37055,-70.1967
autazes,am,amazonas,-3.58574,-59.1256
barcelos,am,amazonas,-0.9833729999999999,-62.9311
barreirinha,am,amazonas,-2.79886,-57.0679
benjamin constant,am,amazonas,-4.377680000000001,-70.0342
beruri,am,amazonas,-3.89874,-61.3616
boa vista do ramos,am,amazonas,-2.9740900000000003,-57.5873
boca do acre,am,amazonas,-8.74232,-67.3919
borba,am,amazonas,-4.39154,-59.5874
caapiranga,am,amazonas,-3.3153699999999997,-61.2206
canutama,am,amazonas,-6.5258199999999995,-64.3953
carauari,am,amazonas,-4.88161,-66.9086
careiro,am,amazonas,-3.7680300000000004,-60.369
careiro da varzea,am,amazonas,-3.3139999999999996,-59.5557
coari,am,amazonas,-4.094119999999999,-63.1441
codajas,am,amazonas,-3.8305300000000004,-62.0658
eirunepe,am,amazonas,-6.65677,-69.8662
envira,am,amazonas,-7.4378899999999994,-70.0281
fonte boa,am,amazonas,-2.52342,-66.0942
guajara,am,amazonas,-7.53797,-72.5907
humaita,am,amazonas,-7.511710000000001,-63.0327
ipixuna,am,amazonas,-7.047910000000001,-71.6934
iranduba,am,amazonas,-3.2747900000000003,-60.19
itacoatiara,am,amazonas,-3.13861,-58.4449
itamarati,am,amazonas,-6.43852,-68.2437
itapiranga,am,amazonas,-2.7408099999999997,-58.0293
japura,am,amazonas,-1.88237,-66.9291
jurua,am,amazonas,-3.4843800000000003,-66.0718
jutai,am,amazonas,-2.75814,-66.7595
labrea,am,amazonas,-7.264130000000001,-64.7948
manacapuru,am,amazonas,-3.29066,-60.6216
manaquiri,am,amazonas,-3.44078,-60.4612
manaus,am,amazonas,-3.1186599999999998,-60.0212
manicore,am,amazonas,-5.80462,-61.2895
maraa,am,amazonas,-1.85313,-65.57300000000001
maues,am,amazonas,-3.39289,-57.7067
nhamunda,am,amazonas,-2.2079299999999997,-56.7112
nova olinda do norte,am,amazonas,-3.9003699999999997,-59.093999999999994
novo airao,am,amazonas,-2.63637,-60.9434
novo aripuana,am,amazonas,-5.12593,-60.3732
parintins,am,amazonas,-2.63741,-56.729
pauini,am,amazonas,-7.71311,-66.992
presidente figueiredo,am,amazonas,-2.02981,-60.0234
rio preto da eva,am,amazonas,-2.7045,-59.6858
santa isabel do rio negro,am,amazonas,-0.41082399999999997,-65.0092
santo antonio do ica,am,amazonas,-3.09544,-67.9463
sao gabriel da cachoeira,am,amazonas,-0.11909000000000002,-67.084
sao paulo de olivenca,am,amazonas,-3.47292,-68.9646
sao sebastiao do uatuma,am,amazonas,-2.55915,-57.8731
silves,am,amazonas,-2.8174799999999998,-58.248000000000005
tabatinga,am,amazonas,-4.2416,-69.9383
tapaua,am,amazonas,-5.62085,-63.1808
tefe,am,amazonas,-3.3682199999999995,-64.7193
tonantins,am,amazonas,-2.8658200000000003,-67.7919
uarini,am,amazonas,-2.99609,-65.1133
urucara,am,amazonas,-2.52936,-57.7538
urucurituba,am,amazonas,-3.1284099999999997,-58.1496
amapa,ap,amapa,2.05267,-50.7957
calcoene,ap,amapa,2.50475,-50.9512
cutias,ap,amapa,0.9707610000000001,-50.8005
ferreira gomes,ap,amapa,0.8572559999999999,-51.1795
itaubal,ap,amapa,0.6021850000000001,-50.6996
laranjal do jari,ap,amapa,-0.8049109999999999,-52.453
macapa,ap,amapa,0.034934,-51.0694
mazagao,ap,amapa,-0.11335999999999999,-51.2891
oiapoque,ap,amapa,3.8407400000000003,-51.8331
pedra branca do amapari,ap,amapa,0.777424,-51.9503
porto grande,ap,amapa,0.71243,-51.4155
pracuuba,ap,amapa,1.74543,-50.7892
santana,ap,amapa,-0.045433999999999995,-51.1729
serra do navio,ap,amapa,0.901357,-52.0036
tartarugalzinho,ap,amapa,1.50652,-50.9087
vitoria do jari,ap,amapa,-0.938,-52.424
abaira,ba,bahia,-13.2488,-41.6619
abare,ba,bahia,-8.72073,-39.1162
acajutiba,ba,bahia,-11.6575,-38.0197
adustina,ba,bahia,-10.5437,-38.1113
agua fria,ba,bahia,-11.8618,-38.7639
aiquara,ba,bahia,-14.1269,-39.8937
alagoinhas,ba,bahia,-12.1335,-38.4208
alcobaca,ba,bahia,-17.5195,-39.2036
almadina,ba,bahia,-14.7089,-39.6415
amargosa,ba,bahia,-13.0215,-39.602
amelia rodrigues,ba,bahia,-12.3914,-38.7563
america dourada,ba,bahia,-11.4429,-41.43899999999999
anage,ba,bahia,-14.6151,-41.1356
andarai,ba,bahia,-12.8049,-41.3297
andorinha,ba,bahia,-10.3482,-39.8391
angical,ba,bahia,-12.0063,-44.7003
anguera,ba,bahia,-12.1462,-39.2462
antas,ba,bahia,-10.3856,-38.3401
antonio cardoso,ba,bahia,-12.4335,-39.1176
antonio goncalves,ba,bahia,-10.5767,-40.2785
apora,ba,bahia,-11.6577,-38.0814
apuarema,ba,bahia,-13.8542,-39.7501
aracas,ba,bahia,-12.22,-38.2027
aracatu,ba,bahia,-14.427999999999999,-41.4648
araci,ba,bahia,-11.3253,-38.9584
aramari,ba,bahia,-12.0884,-38.4969
arataca,ba,bahia,-15.2651,-39.419000000000004
aratuipe,ba,bahia,-13.0716,-39.0038
aurelino leal,ba,bahia,-14.321,-39.329
baianopolis,ba,bahia,-12.3016,-44.5388
baixa grande,ba,bahia,-11.9519,-40.169000000000004
banzae,ba,bahia,-10.5788,-38.6212
barra,ba,bahia,-11.0859,-43.1459
barra da estiva,ba,bahia,-13.6237,-41.3347
barra do choca,ba,bahia,-14.8654,-40.5791
barra do mendes,ba,bahia,-11.81,-42.059
barra do rocha,ba,bahia,-14.2,-39.5991
barreiras,ba,bahia,-12.1439,-44.9968
barro alto,ba,bahia,-11.7605,-41.9054
barro preto,ba,bahia,-14.7948,-39.476
barrocas,ba,bahia,-11.5272,-39.0776
belmonte,ba,bahia,-15.8608,-38.8758
belo campo,ba,bahia,-15.0334,-41.2652
biritinga,ba,bahia,-11.6072,-38.8051
boa nova,ba,bahia,-14.3598,-40.2064
boa vista do tupim,ba,bahia,-12.6498,-40.6064
bom jesus da lapa,ba,bahia,-13.2506,-43.4108
bom jesus da serra,ba,bahia,-14.3663,-40.5126
boninal,ba,bahia,-12.7069,-41.8286
bonito,ba,bahia,-11.9668,-41.2647
boquira,ba,bahia,-12.8205,-42.7324
botupora,ba,bahia,-13.3772,-42.5163
brejoes,ba,bahia,-13.1039,-39.7988
brejolandia,ba,bahia,-12.4815,-43.9679
brotas de macaubas,ba,bahia,-11.9915,-42.6326
brumado,ba,bahia,-14.2021,-41.6696
buerarema,ba,bahia,-14.9595,-39.3028
buritirama,ba,bahia,-10.7171,-43.6302
caatiba,ba,bahia,-14.9699,-40.4092
cabaceiras do paraguacu,ba,bahia,-12.5317,-39.1902
cachoeira,ba,bahia,-12.5994,-38.9587
cacule,ba,bahia,-14.5003,-42.2229
caem,ba,bahia,-11.0677,-40.431999999999995
caetanos,ba,bahia,-14.3347,-40.9175
caetite,ba,bahia,-14.0684,-42.4861
cafarnaum,ba,bahia,-11.6914,-41.4688
cairu,ba,bahia,-13.4904,-39.0465
caldeirao grande,ba,bahia,-11.0208,-40.2956
camacan,ba,bahia,-15.4142,-39.4919
camacari,ba,bahia,-12.6996,-38.3263
camamu,ba,bahia,-13.9398,-39.1071
campo alegre de lourdes,ba,bahia,-9.522210000000001,-43.0126
campo formoso,ba,bahia,-10.5105,-40.32
canapolis,ba,bahia,-13.0725,-44.201
canarana,ba,bahia,-11.6858,-41.7677
canavieiras,ba,bahia,-15.6722,-38.9536
candeal,ba,bahia,-11.8049,-39.1203
candeias,ba,bahia,-12.6716,-38.5472
candiba,ba,bahia,-14.4097,-42.8667
candido sales,ba,bahia,-15.4993,-41.2414
cansancao,ba,bahia,-10.6647,-39.4944
canudos,ba,bahia,-9.900139999999999,-39.1471
capela do alto alegre,ba,bahia,-11.6658,-39.8349
capim grosso,ba,bahia,-11.3797,-40.0089
caraibas,ba,bahia,-14.7177,-41.2603
caravelas,ba,bahia,-17.7268,-39.2597
cardeal da silva,ba,bahia,-11.9472,-37.9469
carinhanha,ba,bahia,-14.2985,-43.7724
casa nova,ba,bahia,-9.16408,-40.974
castro alves,ba,bahia,-12.7579,-39.4248
catolandia,ba,bahia,-12.31,-44.8648
catu,ba,bahia,-12.3513,-38.3791
caturama,ba,bahia,-13.3239,-42.2904
central,ba,bahia,-11.1376,-42.1116
chorrocho,ba,bahia,-8.9695,-39.0979
cicero dantas,ba,bahia,-10.5897,-38.3794
cipo,ba,bahia,-11.1032,-38.5179
coaraci,ba,bahia,-14.637,-39.5556
cocos,ba,bahia,-14.1814,-44.5352
conceicao da feira,ba,bahia,-12.5078,-38.9978
conceicao do almeida,ba,bahia,-12.7836,-39.1715
conceicao do coite,ba,bahia,-11.56,-39.2808
conceicao do jacuipe,ba,bahia,-12.3268,-38.7684
conde,ba,bahia,-11.8179,-37.6131
condeuba,ba,bahia,-14.9022,-41.9718
contendas do sincora,ba,bahia,-13.7537,-41.048
coracao de maria,ba,bahia,-12.2333,-38.7487
cordeiros,ba,bahia,-15.0356,-41.9308
coribe,ba,bahia,-13.8232,-44.4586
coronel joao sa,ba,bahia,-10.2847,-37.9198
correntina,ba,bahia,-13.3477,-44.6333
cotegipe,ba,bahia,-12.0228,-44.2566
cravolandia,ba,bahia,-13.3531,-39.8031
crisopolis,ba,bahia,-11.5059,-38.1515
cristopolis,ba,bahia,-12.2249,-44.4214
cruz das almas,ba,bahia,-12.6675,-39.1008
curaca,ba,bahia,-8.984580000000001,-39.8997
dario meira,ba,bahia,-14.4229,-39.9031
dias davila,ba,bahia,-12.6187,-38.2926
dom basilio,ba,bahia,-13.7565,-41.7677
dom macedo costa,ba,bahia,-12.9016,-39.1923
elisio medrado,ba,bahia,-12.9417,-39.5191
encruzilhada,ba,bahia,-15.5302,-40.9124
entre rios,ba,bahia,-11.9392,-38.0871
erico cardoso,ba,bahia,-13.4215,-42.1352
esplanada,ba,bahia,-11.7942,-37.9432
euclides da cunha,ba,bahia,-10.5078,-39.0153
eunapolis,ba,bahia,-16.3715,-39.5821
fatima,ba,bahia,-10.616,-38.2239
feira da mata,ba,bahia,-14.2044,-44.2744
feira de santana,ba,bahia,-12.2664,-38.9663
filadelfia,ba,bahia,-10.7405,-40.1437
firmino alves,ba,bahia,-14.9823,-39.9269
floresta azul,ba,bahia,-14.8629,-39.6579
formosa do rio preto,ba,bahia,-11.0328,-45.193000000000005
gandu,ba,bahia,-13.7441,-39.4747
gaviao,ba,bahia,-11.4688,-39.7757
gentio do ouro,ba,bahia,-11.4342,-42.5077
gloria,ba,bahia,-9.34382,-38.2544
gongogi,ba,bahia,-14.3195,-39.469
governador mangabeira,ba,bahia,-12.5994,-39.0412
guajeru,ba,bahia,-14.5467,-41.9381
guanambi,ba,bahia,-14.2231,-42.7799
guaratinga,ba,bahia,-16.5833,-39.7847
heliopolis,ba,bahia,-10.6825,-38.2907
iacu,ba,bahia,-12.7666,-40.2056
ibiassuce,ba,bahia,-14.2711,-42.257
ibicarai,ba,bahia,-14.8579,-39.5914
ibicoara,ba,bahia,-13.4059,-41.284
ibicui,ba,bahia,-14.845,-39.9879
ibipeba,ba,bahia,-11.6438,-42.0195
ibipitanga,ba,bahia,-12.8804,-42.4856
ibiquera,ba,bahia,-12.6444,-40.9338
ibirapitanga,ba,bahia,-14.1649,-39.3787
ibirapua,ba,bahia,-17.6832,-40.1129
ibirataia,ba,bahia,-14.0643,-39.6459
ibitiara,ba,bahia,-12.6502,-42.2179
ibitita,ba,bahia,-11.5414,-41.9748
ibotirama,ba,bahia,-12.1779,-43.2167
ichu,ba,bahia,-11.7431,-39.1905
igapora,ba,bahia,-13.774000000000001,-42.7155
igrapiuna,ba,bahia,-13.8295,-39.1361
iguai,ba,bahia,-14.7528,-40.0894
ilheus,ba,bahia,-14.793,-39.046
inhambupe,ba,bahia,-11.780999999999999,-38.355
ipecaeta,ba,bahia,-12.3028,-39.3069
ipiau,ba,bahia,-14.1226,-39.7353
ipira,ba,bahia,-12.1561,-39.7359
ipupiara,ba,bahia,-11.8219,-42.6179
irajuba,ba,bahia,-13.2563,-40.0848
iramaia,ba,bahia,-13.2902,-40.9595
iraquara,ba,bahia,-12.2429,-41.6155
irara,ba,bahia,-12.0504,-38.7631
irece,ba,bahia,-11.3033,-41.8535
itabela,ba,bahia,-16.5732,-39.5593
itaberaba,ba,bahia,-12.5242,-40.3059
itabuna,ba,bahia,-14.7876,-39.2781
itacare,ba,bahia,-14.2784,-38.9959
itaete,ba,bahia,-12.9831,-40.9677
itagi,ba,bahia,-14.1615,-40.0131
itagiba,ba,bahia,-14.2782,-39.8449
itagimirim,ba,bahia,-16.0819,-39.6133
itaguacu da bahia,ba,bahia,-11.0147,-42.3997
itaju do colonia,ba,bahia,-15.1366,-39.7283
itajuipe,ba,bahia,-14.6788,-39.3698
itamaraju,ba,bahia,-17.0378,-39.5386
itamari,ba,bahia,-13.7782,-39.683
itambe,ba,bahia,-15.2429,-40.63
itanagra,ba,bahia,-12.2614,-38.0436
itanhem,ba,bahia,-17.1642,-40.3321
itaparica,ba,bahia,-12.8932,-38.68
itape,ba,bahia,-14.8876,-39.4239
itapebi,ba,bahia,-15.9551,-39.5329
itapetinga,ba,bahia,-15.2475,-40.2482
itapicuru,ba,bahia,-11.3088,-38.2262
itapitanga,ba,bahia,-14.4139,-39.5657
itaquara,ba,bahia,-13.4459,-39.9378
itarantim,ba,bahia,-15.6528,-40.065
itatim,ba,bahia,-12.7099,-39.6952
itirucu,ba,bahia,-13.529000000000002,-40.1472
itiuba,ba,bahia,-10.6948,-39.8446
itororo,ba,bahia,-15.11,-40.0684
ituacu,ba,bahia,-13.8107,-41.3003
itubera,ba,bahia,-13.7249,-39.1481
iuiu,ba,bahia,-14.4054,-43.5595
jaborandi,ba,bahia,-13.6071,-44.4255
jacaraci,ba,bahia,-14.8541,-42.4329
jacobina,ba,bahia,-11.1812,-40.5117
jaguaquara,ba,bahia,-13.5248,-39.964
jaguarari,ba,bahia,-10.2569,-40.1999
jaguaripe,ba,bahia,-13.1109,-38.8939
jandaira,ba,bahia,-11.5616,-37.7853
jequie,ba,bahia,-13.8509,-40.0877
jeremoabo,ba,bahia,-10.0685,-38.3471
jiquirica,ba,bahia,-13.2621,-39.5737
jitauna,ba,bahia,-14.0131,-39.8969
joao dourado,ba,bahia,-11.3486,-41.6548
juazeiro,ba,bahia,-9.41622,-40.5033
jucurucu,ba,bahia,-16.8488,-40.1641
jussara,ba,bahia,-11.0431,-41.9702
jussari,ba,bahia,-15.192,-39.491
jussiape,ba,bahia,-13.5155,-41.5882
lafaiete coutinho,ba,bahia,-13.6541,-40.2119
lagoa real,ba,bahia,-14.0334,-42.1328
laje,ba,bahia,-13.1673,-39.4213
lajedao,ba,bahia,-17.6056,-40.3383
lajedinho,ba,bahia,-12.3529,-40.9048
lajedo do tabocal,ba,bahia,-13.4663,-40.2204
lamarao,ba,bahia,-11.773,-38.887
lapao,ba,bahia,-11.3851,-41.8286
lauro de freitas,ba,bahia,-12.8978,-38.321
lencois,ba,bahia,-12.5616,-41.3928
licinio de almeida,ba,bahia,-14.6842,-42.5095
livramento de nossa senhora,ba,bahia,-13.6369,-41.8432
luis eduardo magalhaes,ba,bahia,-12.0956,-45.7866
macajuba,ba,bahia,-12.1326,-40.3571
macarani,ba,bahia,-15.5646,-40.4209
macaubas,ba,bahia,-13.0186,-42.6945
macurure,ba,bahia,-9.16226,-39.0518
madre de deus,ba,bahia,-12.7446,-38.6153
maetinga,ba,bahia,-14.6623,-41.4915
maiquinique,ba,bahia,-15.624,-40.2587
mairi,ba,bahia,-11.7107,-40.1437
malhada,ba,bahia,-14.3371,-43.7686
malhada de pedras,ba,bahia,-14.3847,-41.8842
manoel vitorino,ba,bahia,-14.1476,-40.2399
mansidao,ba,bahia,-10.7227,-44.0428
maracas,ba,bahia,-13.4355,-40.4323
maragogipe,ba,bahia,-12.776,-38.9175
marau,ba,bahia,-14.1035,-39.0137
marcionilio souza,ba,bahia,-13.0064,-40.5295
mascote,ba,bahia,-15.5542,-39.3016
mata de sao joao,ba,bahia,-12.5307,-38.3009
matina,ba,bahia,-13.9109,-42.8439
medeiros neto,ba,bahia,-17.3707,-40.2238
miguel calmon,ba,bahia,-11.4299,-40.6031
milagres,ba,bahia,-12.8646,-39.8611
mirangaba,ba,bahia,-10.960999999999999,-40.574
mirante,ba,bahia,-14.2385,-40.7718
monte santo,ba,bahia,-10.4374,-39.3321
morpara,ba,bahia,-11.5569,-43.2766
morro do chapeu,ba,bahia,-11.5488,-41.1565
mortugaba,ba,bahia,-15.0225,-42.3727
mucuge,ba,bahia,-13.0053,-41.3703
mucuri,ba,bahia,-18.0754,-39.5565
mulungu do morro,ba,bahia,-11.9648,-41.6374
mundo novo,ba,bahia,-11.8541,-40.4714
muniz ferreira,ba,bahia,-13.0092,-39.1092
muquem de sao francisco,ba,bahia,-12.065,-43.5497
muritiba,ba,bahia,-12.6329,-38.9921
mutuipe,ba,bahia,-13.2284,-39.5044
nazare,ba,bahia,-13.0235,-39.0108
nilo pecanha,ba,bahia,-13.604000000000001,-39.1091
nordestina,ba,bahia,-10.8192,-39.4297
nova canaa,ba,bahia,-14.7912,-40.1458
nova fatima,ba,bahia,-11.6031,-39.6302
nova ibia,ba,bahia,-13.812000000000001,-39.6182
nova itarana,ba,bahia,-13.0241,-40.0653
nova redencao,ba,bahia,-12.815,-41.0748
nova soure,ba,bahia,-11.2329,-38.4871
nova vicosa,ba,bahia,-17.8926,-39.3743
novo horizonte,ba,bahia,-12.8083,-42.1682
novo triunfo,ba,bahia,-10.3182,-38.4014
olindina,ba,bahia,-11.3497,-38.3379
oliveira dos brejinhos,ba,bahia,-12.3132,-42.8969
ouricangas,ba,bahia,-12.0175,-38.6166
ourolandia,ba,bahia,-10.9578,-41.0756
palmas de monte alto,ba,bahia,-14.2676,-43.1609
palmeiras,ba,bahia,-12.5059,-41.5809
paramirim,ba,bahia,-13.4388,-42.2395
paratinga,ba,bahia,-12.687000000000001,-43.1798
paripiranga,ba,bahia,-10.6859,-37.8626
pau brasil,ba,bahia,-15.4572,-39.6458
paulo afonso,ba,bahia,-9.3983,-38.2216
pe de serra,ba,bahia,-11.8313,-39.611
pedrao,ba,bahia,-12.1491,-38.6487
pedro alexandre,ba,bahia,-10.012,-37.8932
piata,ba,bahia,-13.1465,-41.7702
pilao arcado,ba,bahia,-10.0051,-42.4936
pindai,ba,bahia,-14.4921,-42.68600000000001
pindobacu,ba,bahia,-10.7433,-40.3675
pintadas,ba,bahia,-11.8117,-39.9009
pirai do norte,ba,bahia,-13.759,-39.3836
piripa,ba,bahia,-14.9444,-41.7168
piritiba,ba,bahia,-11.73,-40.5587
planaltino,ba,bahia,-13.2618,-40.3695
planalto,ba,bahia,-14.6654,-40.4718
pocoes,ba,bahia,-14.5234,-40.3634
pojuca,ba,bahia,-12.4303,-38.3374
ponto novo,ba,bahia,-10.8653,-40.1311
porto seguro,ba,bahia,-16.4435,-39.0643
potiragua,ba,bahia,-15.5943,-39.8638
prado,ba,bahia,-17.3364,-39.2227
presidente dutra,ba,bahia,-11.2923,-41.9843
presidente janio quadros,ba,bahia,-14.6885,-41.6798
presidente tancredo neves,ba,bahia,-13.4471,-39.4203
queimadas,ba,bahia,-10.9736,-39.6293
quijingue,ba,bahia,-10.7505,-39.2137
quixabeira,ba,bahia,-11.4031,-40.12
rafael jambeiro,ba,bahia,-12.4053,-39.5007
remanso,ba,bahia,-9.619439999999999,-42.0848
retirolandia,ba,bahia,-11.4832,-39.4234
riachao das neves,ba,bahia,-11.7508,-44.9143
riachao do jacuipe,ba,bahia,-11.8067,-39.3818
riacho de santana,ba,bahia,-13.6059,-42.9397
ribeira do amparo,ba,bahia,-11.0421,-38.4242
ribeira do pombal,ba,bahia,-10.8373,-38.5382
ribeirao do largo,ba,bahia,-15.4508,-40.7441
rio de contas,ba,bahia,-13.5852,-41.8048
rio do antonio,ba,bahia,-14.4071,-42.0721
rio do pires,ba,bahia,-13.1185,-42.2902
rio real,ba,bahia,-11.4814,-37.9332
rodelas,ba,bahia,-8.85021,-38.78
ruy barbosa,ba,bahia,-12.2816,-40.4931
salinas da margarida,ba,bahia,-12.873,-38.7562
salvador,ba,bahia,-12.9718,-38.5011
santa barbara,ba,bahia,-11.9515,-38.9681
santa brigida,ba,bahia,-9.73227,-38.1209
santa cruz cabralia,ba,bahia,-16.2825,-39.0295
santa cruz da vitoria,ba,bahia,-14.964,-39.8115
santa ines,ba,bahia,-13.2793,-39.814
santa luzia,ba,bahia,-15.4342,-39.3287
santa maria da vitoria,ba,bahia,-13.3859,-44.2011
santa rita de cassia,ba,bahia,-11.0063,-44.5255
santa teresinha,ba,bahia,-12.7697,-39.5215
santaluz,ba,bahia,-11.2508,-39.375
santana,ba,bahia,-12.9792,-44.0506
santanopolis,ba,bahia,-12.0311,-38.8694
santo amaro,ba,bahia,-12.5472,-38.7137
santo antonio de jesus,ba,bahia,-12.9614,-39.2584
santo estevao,ba,bahia,-12.427999999999999,-39.2505
sao desiderio,ba,bahia,-12.3572,-44.9769
sao domingos,ba,bahia,-11.4649,-39.5268
sao felipe,ba,bahia,-12.8394,-39.0893
sao felix,ba,bahia,-12.6104,-38.9727
sao felix do coribe,ba,bahia,-13.4019,-44.1837
sao francisco do conde,ba,bahia,-12.6183,-38.6786
sao gabriel,ba,bahia,-11.2175,-41.8843
sao goncalo dos campos,ba,bahia,-12.4331,-38.9663
sao jose da vitoria,ba,bahia,-15.0787,-39.3437
sao jose do jacuipe,ba,bahia,-11.4137,-39.8669
sao miguel das matas,ba,bahia,-13.0434,-39.4578
sao sebastiao do passe,ba,bahia,-12.5123,-38.4905
sapeacu,ba,bahia,-12.7208,-39.1824
satiro dias,ba,bahia,-11.5929,-38.5938
saubara,ba,bahia,-12.7387,-38.7625
saude,ba,bahia,-10.9428,-40.4155
seabra,ba,bahia,-12.4169,-41.7722
sebastiao laranjeiras,ba,bahia,-14.571,-42.9434
senhor do bonfim,ba,bahia,-10.4594,-40.1865
sento se,ba,bahia,-9.74138,-41.8786
serra do ramalho,ba,bahia,-13.5659,-43.5929
serra dourada,ba,bahia,-12.759,-43.9504
serra preta,ba,bahia,-12.155999999999999,-39.3305
serrinha,ba,bahia,-11.6584,-39.01
serrolandia,ba,bahia,-11.4085,-40.2983
simoes filho,ba,bahia,-12.7866,-38.4029
sitio do mato,ba,bahia,-13.0801,-43.4689
sitio do quinto,ba,bahia,-10.3545,-38.2213
sobradinho,ba,bahia,-9.450239999999999,-40.8145
souto soares,ba,bahia,-12.088,-41.6427
tabocas do brejo velho,ba,bahia,-12.7026,-44.0075
tanhacu,ba,bahia,-14.0197,-41.2473
tanque novo,ba,bahia,-13.5485,-42.4934
tanquinho,ba,bahia,-11.968,-39.1033
taperoa,ba,bahia,-13.5321,-39.1009
tapiramuta,ba,bahia,-11.8475,-40.7927
teixeira de freitas,ba,bahia,-17.5399,-39.74
teodoro sampaio,ba,bahia,-12.295,-38.6347
teofilandia,ba,bahia,-11.4827,-38.9913
teolandia,ba,bahia,-13.5896,-39.484
terra nova,ba,bahia,-12.3888,-38.6238
tremedal,ba,bahia,-14.9736,-41.4142
tucano,ba,bahia,-10.9584,-38.7894
uaua,ba,bahia,-9.83325,-39.4794
ubaira,ba,bahia,-13.2714,-39.666
ubaitaba,ba,bahia,-14.302999999999999,-39.3222
ubata,ba,bahia,-14.2063,-39.5207
uibai,ba,bahia,-11.3394,-42.1354
umburanas,ba,bahia,-10.7339,-41.3234
una,ba,bahia,-15.2791,-39.0765
urandi,ba,bahia,-14.7678,-42.6498
urucuca,ba,bahia,-14.5963,-39.2851
utinga,ba,bahia,-12.0783,-41.0954
valenca,ba,bahia,-13.3669,-39.073
valente,ba,bahia,-11.4062,-39.457
varzea da roca,ba,bahia,-11.6005,-40.1328
varzea do poco,ba,bahia,-11.5273,-40.3149
varzea nova,ba,bahia,-11.2557,-40.9432
varzedo,ba,bahia,-12.9672,-39.3919
vera cruz,ba,bahia,-12.9568,-38.6153
vereda,ba,bahia,-17.2183,-40.0974
vitoria da conquista,ba,bahia,-14.8615,-40.8442
wagner,ba,bahia,-12.2819,-41.1715
wanderley,ba,bahia,-12.1144,-43.8958
wenceslau guimaraes,ba,bahia,-13.6908,-39.4762
xiquexique,ba,bahia,-10.823,-42.7245
abaiara,ce,ceara,-7.34588,-39.0416
acarape,ce,ceara,-4.22083,-38.7055
acarau,ce,ceara,-2.88769,-40.1183
acopiara,ce,ceara,-6.08911,-39.448
aiuaba,ce,ceara,-6.571219999999999,-40.1178
alcantaras,ce,ceara,-3.5853699999999997,-40.5479
altaneira,ce,ceara,-6.9983699999999995,-39.7356
alto santo,ce,ceara,-5.50894,-38.2743
amontada,ce,ceara,-3.3601699999999997,-39.8288
antonina do norte,ce,ceara,-6.769189999999999,-39.986999999999995
apuiares,ce,ceara,-3.94506,-39.4359
aquiraz,ce,ceara,-3.89929,-38.3896
aracati,ce,ceara,-4.55826,-37.7679
aracoiaba,ce,ceara,-4.36872,-38.8125
ararenda,ce,ceara,-4.74567,-40.830999999999996
araripe,ce,ceara,-7.213189999999999,-40.1359
aratuba,ce,ceara,-4.4122900000000005,-39.0471
arneiroz,ce,ceara,-6.3165,-40.1653
assare,ce,ceara,-6.8669,-39.8689
aurora,ce,ceara,-6.933489999999999,-38.9742
baixio,ce,ceara,-6.71945,-38.7134
banabuiu,ce,ceara,-5.30454,-38.9132
barbalha,ce,ceara,-7.2982,-39.3021
barreira,ce,ceara,-4.28921,-38.6429
barro,ce,ceara,-7.171880000000001,-38.7741
barroquinha,ce,ceara,-3.02051,-41.1358
baturite,ce,ceara,-4.32598,-38.8812
beberibe,ce,ceara,-4.17741,-38.1271
bela cruz,ce,ceara,-3.04996,-40.1671
boa viagem,ce,ceara,-5.11258,-39.7337
brejo santo,ce,ceara,-7.48469,-38.9799
camocim,ce,ceara,-2.9005,-40.8544
campos sales,ce,ceara,-7.06761,-40.3687
caninde,ce,ceara,-4.35162,-39.3155
capistrano,ce,ceara,-4.45569,-38.9048
caridade,ce,ceara,-4.225140000000001,-39.1912
carire,ce,ceara,-3.94858,-40.476
caririacu,ce,ceara,-7.02808,-39.2828
carius,ce,ceara,-6.52428,-39.4916
carnaubal,ce,ceara,-4.15985,-40.9413
cascavel,ce,ceara,-4.12967,-38.2412
catarina,ce,ceara,-6.12291,-39.8736
catunda,ce,ceara,-4.6433599999999995,-40.2
caucaia,ce,ceara,-3.7279699999999996,-38.6619
cedro,ce,ceara,-6.600339999999999,-39.0609
chaval,ce,ceara,-3.03571,-41.2435
choro,ce,ceara,-4.83906,-39.1344
chorozinho,ce,ceara,-4.28873,-38.4986
coreau,ce,ceara,-3.5415,-40.6587
crateus,ce,ceara,-5.167680000000001,-40.6536
crato,ce,ceara,-7.2153,-39.4103
croata,ce,ceara,-4.4048099999999994,-40.9022
cruz,ce,ceara,-2.91813,-40.176
deputado irapuan pinheiro,ce,ceara,-5.91485,-39.257
erere,ce,ceara,-6.0275099999999995,-38.3461
eusebio,ce,ceara,-3.8925,-38.4559
farias brito,ce,ceara,-6.921460000000001,-39.5651
forquilha,ce,ceara,-3.79945,-40.2634
fortaleza,ce,ceara,-3.71664,-38.5423
fortim,ce,ceara,-4.4512599999999996,-37.7981
frecheirinha,ce,ceara,-3.7555699999999996,-40.818000000000005
general sampaio,ce,ceara,-4.0435099999999995,-39.454
graca,ce,ceara,-4.04422,-40.749
granja,ce,ceara,-3.1278799999999998,-40.8372
granjeiro,ce,ceara,-6.88134,-39.2144
groairas,ce,ceara,-3.9178699999999997,-40.3852
guaiuba,ce,ceara,-4.04057,-38.6404
guaraciaba do norte,ce,ceara,-4.15814,-40.7476
guaramiranga,ce,ceara,-4.26248,-38.931999999999995
hidrolandia,ce,ceara,-4.40958,-40.4056
horizonte,ce,ceara,-4.1209,-38.4707
ibaretama,ce,ceara,-4.80376,-38.7501
ibiapina,ce,ceara,-3.92403,-40.8911
ibicuitinga,ce,ceara,-4.96999,-38.6362
icapui,ce,ceara,-4.71206,-37.3531
ico,ce,ceara,-6.3962699999999995,-38.8554
iguatu,ce,ceara,-6.36281,-39.2892
independencia,ce,ceara,-5.3878900000000005,-40.3085
ipaporanga,ce,ceara,-4.89764,-40.7537
ipaumirim,ce,ceara,-6.78265,-38.7179
ipu,ce,ceara,-4.317480000000001,-40.7059
ipueiras,ce,ceara,-4.5380199999999995,-40.7118
iracema,ce,ceara,-5.8124,-38.2919
iraucuba,ce,ceara,-3.7473699999999996,-39.7843
itaicaba,ce,ceara,-4.67146,-37.833
itaitinga,ce,ceara,-3.9657699999999996,-38.5298
itapaje,ce,ceara,-3.6831400000000003,-39.5855
itapipoca,ce,ceara,-3.4993300000000005,-39.5836
itapiuna,ce,ceara,-4.55516,-38.9281
itarema,ce,ceara,-2.9248,-39.9167
itatira,ce,ceara,-4.52608,-39.6202
jaguaretama,ce,ceara,-5.6051,-38.7639
jaguaribara,ce,ceara,-5.67765,-38.5359
jaguaribe,ce,ceara,-5.9021300000000005,-38.6227
jaguaruana,ce,ceara,-4.83151,-37.781
jardim,ce,ceara,-7.575989999999999,-39.2826
jati,ce,ceara,-7.6797,-39.0029
jijoca de jericoacoara,ce,ceara,-2.79331,-40.5127
juazeiro do norte,ce,ceara,-7.196210000000001,-39.3076
jucas,ce,ceara,-6.51523,-39.5187
lavras da mangabeira,ce,ceara,-6.7448,-38.9706
limoeiro do norte,ce,ceara,-5.14392,-38.0847
madalena,ce,ceara,-4.84601,-39.5725
maracanau,ce,ceara,-3.86699,-38.6259
maranguape,ce,ceara,-3.89143,-38.6829
marco,ce,ceara,-3.1285,-40.1582
martinopole,ce,ceara,-3.2252,-40.6896
massape,ce,ceara,-3.5236400000000003,-40.3423
mauriti,ce,ceara,-7.3859699999999995,-38.7708
meruoca,ce,ceara,-3.53974,-40.4531
milagres,ce,ceara,-7.29749,-38.9378
milha,ce,ceara,-5.67252,-39.1875
miraima,ce,ceara,-3.5686699999999996,-39.9663
missao velha,ce,ceara,-7.23522,-39.143
mombaca,ce,ceara,-5.73844,-39.63
monsenhor tabosa,ce,ceara,-4.79102,-40.0646
morada nova,ce,ceara,-5.09736,-38.3702
moraujo,ce,ceara,-3.46311,-40.6776
morrinhos,ce,ceara,-3.23426,-40.1233
mucambo,ce,ceara,-3.90271,-40.7452
mulungu,ce,ceara,-4.30294,-38.9951
nova olinda,ce,ceara,-7.08415,-39.6713
nova russas,ce,ceara,-4.70581,-40.5621
novo oriente,ce,ceara,-5.525519999999999,-40.7713
ocara,ce,ceara,-4.4852300000000005,-38.5933
oros,ce,ceara,-6.2518199999999995,-38.9053
pacajus,ce,ceara,-4.171069999999999,-38.465
pacatuba,ce,ceara,-3.9784,-38.6183
pacoti,ce,ceara,-4.22492,-38.922
pacuja,ce,ceara,-3.9832699999999996,-40.6989
palhano,ce,ceara,-4.73672,-37.9655
palmacia,ce,ceara,-4.13831,-38.8446
paracuru,ce,ceara,-3.41436,-39.03
paraipaba,ce,ceara,-3.43799,-39.1479
parambu,ce,ceara,-6.20768,-40.6905
paramoti,ce,ceara,-4.08815,-39.2417
pedra branca,ce,ceara,-5.45341,-39.7078
penaforte,ce,ceara,-7.82163,-39.0707
pentecoste,ce,ceara,-3.7927400000000002,-39.2692
pereiro,ce,ceara,-6.03576,-38.4624
pindoretama,ce,ceara,-4.01584,-38.3061
piquet carneiro,ce,ceara,-5.80025,-39.417
pires ferreira,ce,ceara,-4.2392199999999995,-40.6442
poranga,ce,ceara,-4.74672,-40.9205
porteiras,ce,ceara,-7.52265,-39.114000000000004
potengi,ce,ceara,-7.091539999999999,-40.0233
potiretama,ce,ceara,-5.71287,-38.1578
quiterianopolis,ce,ceara,-5.8425,-40.7002
quixada,ce,ceara,-4.9663,-39.0155
quixelo,ce,ceara,-6.24637,-39.2011
quixeramobim,ce,ceara,-5.19067,-39.2889
quixere,ce,ceara,-5.07148,-37.9802
redencao,ce,ceara,-4.21587,-38.7277
reriutaba,ce,ceara,-4.14191,-40.5759
russas,ce,ceara,-4.92673,-37.9721
saboeiro,ce,ceara,-6.5346,-39.9017
salitre,ce,ceara,-7.283980000000001,-40.45
santa quiteria,ce,ceara,-4.32608,-40.1523
santana do acarau,ce,ceara,-3.46144,-40.2118
santana do cariri,ce,ceara,-7.176130000000001,-39.7302
sao benedito,ce,ceara,-4.04713,-40.8596
sao goncalo do amarante,ce,ceara,-3.60515,-38.9726
sao joao do jaguaribe,ce,ceara,-5.27516,-38.2694
sao luis do curu,ce,ceara,-3.6697599999999997,-39.2391
senador pompeu,ce,ceara,-5.58244,-39.3704
senador sa,ce,ceara,-3.35305,-40.4662
sobral,ce,ceara,-3.6891300000000005,-40.3482
solonopole,ce,ceara,-5.71894,-39.0107
tabuleiro do norte,ce,ceara,-5.243530000000001,-38.1282
tamboril,ce,ceara,-4.83136,-40.3196
tarrafas,ce,ceara,-6.678380000000001,-39.753
taua,ce,ceara,-5.98585,-40.2968
tejucuoca,ce,ceara,-3.98831,-39.5799
tiangua,ce,ceara,-3.72965,-40.9923
trairi,ce,ceara,-3.26932,-39.2681
tururu,ce,ceara,-3.5841300000000005,-39.4297
ubajara,ce,ceara,-3.85448,-40.9204
umari,ce,ceara,-6.63893,-38.7008
umirim,ce,ceara,-3.67654,-39.3465
uruburetama,ce,ceara,-3.62316,-39.5107
uruoca,ce,ceara,-3.30819,-40.5628
varjota,ce,ceara,-4.1938699999999995,-40.4741
varzea alegre,ce,ceara,-6.78264,-39.2942
vicosa do ceara,ce,ceara,-3.5667,-41.0916
brasilia,df,distrito federal,-15.7795,-47.9297
afonso claudio,es,espirito santo,-20.0778,-41.1261
agua doce do norte,es,espirito santo,-18.5482,-40.9854
aguia branca,es,espirito santo,-18.9846,-40.7437
alegre,es,espirito santo,-20.758000000000003,-41.5382
alfredo chaves,es,espirito santo,-20.6396,-40.7543
alto rio novo,es,espirito santo,-19.0618,-41.0209
anchieta,es,espirito santo,-20.7955,-40.6425
apiaca,es,espirito santo,-21.1523,-41.5693
aracruz,es,espirito santo,-19.82,-40.2764
atilio vivacqua,es,espirito santo,-20.913,-41.1986
baixo guandu,es,espirito santo,-19.5213,-41.0109
barra de sao francisco,es,espirito santo,-18.7548,-40.8965
boa esperanca,es,espirito santo,-18.5395,-40.3025
bom jesus do norte,es,espirito santo,-21.1173,-41.6731
brejetuba,es,espirito santo,-20.1395,-41.2954
cachoeiro de itapemirim,es,espirito santo,-20.8462,-41.1198
cariacica,es,espirito santo,-20.2632,-40.4165
castelo,es,espirito santo,-20.6033,-41.2031
colatina,es,espirito santo,-19.5493,-40.6269
conceicao da barra,es,espirito santo,-18.5883,-39.7362
conceicao do castelo,es,espirito santo,-20.3639,-41.2417
divino de sao lourenco,es,espirito santo,-20.6229,-41.6937
domingos martins,es,espirito santo,-20.3603,-40.6594
dores do rio preto,es,espirito santo,-20.6931,-41.8405
ecoporanga,es,espirito santo,-18.3702,-40.836
fundao,es,espirito santo,-19.937,-40.4078
governador lindenberg,es,espirito santo,-19.1864,-40.4473
guacui,es,espirito santo,-20.7668,-41.6734
guarapari,es,espirito santo,-20.6772,-40.5093
ibatiba,es,espirito santo,-20.2347,-41.5087
ibiracu,es,espirito santo,-19.8366,-40.3732
ibitirama,es,espirito santo,-20.5466,-41.6667
iconha,es,espirito santo,-20.7913,-40.8132
irupi,es,espirito santo,-20.3501,-41.6444
itaguacu,es,espirito santo,-19.8018,-40.8601
itapemirim,es,espirito santo,-21.0095,-40.8307
itarana,es,espirito santo,-19.875,-40.8753
iuna,es,espirito santo,-20.3531,-41.5334
jaguare,es,espirito santo,-18.907,-40.0759
jeronimo monteiro,es,espirito santo,-20.7994,-41.3948
joao neiva,es,espirito santo,-19.7577,-40.385999999999996
laranja da terra,es,espirito santo,-19.8994,-41.0621
linhares,es,espirito santo,-19.3946,-40.0643
mantenopolis,es,espirito santo,-18.8594,-41.123999999999995
marataizes,es,espirito santo,-21.0398,-40.8384
marechal floriano,es,espirito santo,-20.4159,-40.67
marilandia,es,espirito santo,-19.4114,-40.5456
mimoso do sul,es,espirito santo,-21.0628,-41.3615
montanha,es,espirito santo,-18.1303,-40.3668
mucurici,es,espirito santo,-18.0965,-40.52
muniz freire,es,espirito santo,-20.4652,-41.4156
muqui,es,espirito santo,-20.9509,-41.346000000000004
nova venecia,es,espirito santo,-18.715,-40.4053
pancas,es,espirito santo,-19.2229,-40.8534
pedro canario,es,espirito santo,-18.3004,-39.9574
pinheiros,es,espirito santo,-18.4141,-40.2171
piuma,es,espirito santo,-20.8334,-40.7268
ponto belo,es,espirito santo,-18.1253,-40.5458
presidente kennedy,es,espirito santo,-21.0964,-41.0468
rio bananal,es,espirito santo,-19.2719,-40.3366
rio novo do sul,es,espirito santo,-20.8556,-40.9388
santa leopoldina,es,espirito santo,-20.0999,-40.527
santa maria de jetiba,es,espirito santo,-20.0253,-40.7439
santa teresa,es,espirito santo,-19.9363,-40.5979
sao domingos do norte,es,espirito santo,-19.1452,-40.6281
sao gabriel da palha,es,espirito santo,-19.0182,-40.5365
sao jose do calcado,es,espirito santo,-21.0274,-41.6636
sao mateus,es,espirito santo,-18.7214,-39.8579
sao roque do canaa,es,espirito santo,-19.7411,-40.6526
serra,es,espirito santo,-20.121,-40.3074
sooretama,es,espirito santo,-19.1897,-40.0974
vargem alta,es,espirito santo,-20.669,-41.0179
venda nova do imigrante,es,espirito santo,-20.327,-41.1355
viana,es,espirito santo,-20.3825,-40.4933
vila pavao,es,espirito santo,-18.6091,-40.609
vila valerio,es,espirito santo,-18.9958,-40.3849
vila velha,es,espirito santo,-20.3417,-40.2875
vitoria,es,espirito santo,-20.3155,-40.3128
abadia de goias,go,goias,-16.7573,-49.4412
abadiania,go,goias,-16.197,-48.7057
acreuna,go,goias,-17.396,-50.3749
adelandia,go,goias,-16.4127,-50.1657
agua fria de goias,go,goias,-14.9778,-47.7823
agua limpa,go,goias,-18.0771,-48.7603
aguas lindas de goias,go,goias,-15.7617,-48.2816
alexania,go,goias,-16.0834,-48.5076
aloandia,go,goias,-17.7292,-49.4769
alto horizonte,go,goias,-14.1978,-49.3378
alto paraiso de goias,go,goias,-14.1305,-47.51
alvorada do norte,go,goias,-14.4797,-46.49100000000001
amaralina,go,goias,-13.9236,-49.2962
americano do brasil,go,goias,-16.2514,-49.9831
amorinopolis,go,goias,-16.6151,-51.0919
anapolis,go,goias,-16.3281,-48.953
anhanguera,go,goias,-18.3339,-48.2204
anicuns,go,goias,-16.4642,-49.9617
aparecida de goiania,go,goias,-16.8198,-49.2469
aparecida do rio doce,go,goias,-18.2941,-51.1516
apore,go,goias,-18.9607,-51.9232
aracu,go,goias,-16.3563,-49.6804
aragarcas,go,goias,-15.8955,-52.2372
aragoiania,go,goias,-16.9087,-49.4476
araguapaz,go,goias,-15.0909,-50.6315
arenopolis,go,goias,-16.3837,-51.5563
aruana,go,goias,-14.9166,-51.075
aurilandia,go,goias,-16.6773,-50.4641
avelinopolis,go,goias,-16.4672,-49.7579
baliza,go,goias,-16.1966,-52.5393
barro alto,go,goias,-14.9658,-48.9086
bela vista de goias,go,goias,-16.9693,-48.9513
bom jardim de goias,go,goias,-16.2063,-52.1728
bom jesus de goias,go,goias,-18.2173,-49.74
bonfinopolis,go,goias,-16.6173,-48.9616
bonopolis,go,goias,-13.6329,-49.8106
brazabrantes,go,goias,-16.4281,-49.3863
britania,go,goias,-15.2428,-51.1602
buriti alegre,go,goias,-18.1378,-49.0404
buriti de goias,go,goias,-16.1792,-50.4302
buritinopolis,go,goias,-14.4772,-46.4076
cabeceiras,go,goias,-15.7995,-46.9265
cachoeira alta,go,goias,-18.7618,-50.9432
cachoeira de goias,go,goias,-16.6635,-50.646
cachoeira dourada,go,goias,-18.4859,-49.4766
cacu,go,goias,-18.5594,-51.1328
caiaponia,go,goias,-16.9539,-51.8091
caldas novas,go,goias,-17.7441,-48.6246
caldazinha,go,goias,-16.7117,-49.0013
campestre de goias,go,goias,-16.7624,-49.695
campinacu,go,goias,-13.787,-48.5704
campinorte,go,goias,-14.3137,-49.1511
campo alegre de goias,go,goias,-17.6363,-47.7768
campo limpo de goias,go,goias,-16.2971,-49.0895
campos belos,go,goias,-13.035,-46.7681
campos verdes,go,goias,-14.2442,-49.6528
carmo do rio verde,go,goias,-15.3549,-49.708
castelandia,go,goias,-18.0921,-50.203
catalao,go,goias,-18.1656,-47.943999999999996
caturai,go,goias,-16.4447,-49.4936
cavalcante,go,goias,-13.7976,-47.4566
ceres,go,goias,-15.3061,-49.6
cezarina,go,goias,-16.9718,-49.7758
chapadao do ceu,go,goias,-18.4073,-52.549
cidade ocidental,go,goias,-16.0765,-47.9252
cocalzinho de goias,go,goias,-15.7914,-48.7747
colinas do sul,go,goias,-14.1528,-48.076
corrego do ouro,go,goias,-16.2918,-50.5503
corumba de goias,go,goias,-15.9245,-48.8117
corumbaiba,go,goias,-18.1415,-48.5626
cristalina,go,goias,-16.7676,-47.6131
cristianopolis,go,goias,-17.1987,-48.7034
crixas,go,goias,-14.5412,-49.974
crominia,go,goias,-17.2883,-49.3798
cumari,go,goias,-18.2644,-48.1511
damianopolis,go,goias,-14.5604,-46.178000000000004
damolandia,go,goias,-16.2544,-49.3631
davinopolis,go,goias,-18.1501,-47.5568
diorama,go,goias,-16.2329,-51.2543
divinopolis de goias,go,goias,-13.2853,-46.3999
doverlandia,go,goias,-16.7188,-52.3189
edealina,go,goias,-17.4239,-49.6644
edeia,go,goias,-17.3406,-49.9295
estrela do norte,go,goias,-13.8665,-49.0716
faina,go,goias,-15.4473,-50.3622
fazenda nova,go,goias,-16.1834,-50.7781
firminopolis,go,goias,-16.5778,-50.303999999999995
flores de goias,go,goias,-14.4451,-47.0417
formosa,go,goias,-15.54,-47.336999999999996
formoso,go,goias,-13.6499,-48.8775
gameleira de goias,go,goias,-16.4854,-48.6454
goianapolis,go,goias,-16.5098,-49.0234
goiandira,go,goias,-18.1352,-48.0875
goianesia,go,goias,-15.3118,-49.1162
goiania,go,goias,-16.6864,-49.2643
goianira,go,goias,-16.4947,-49.427
goias,go,goias,-15.9333,-50.14
goiatuba,go,goias,-18.0105,-49.3658
gouvelandia,go,goias,-18.6238,-50.0805
guapo,go,goias,-16.8297,-49.5345
guaraita,go,goias,-15.6121,-50.0265
guarani de goias,go,goias,-13.9421,-46.4868
guarinos,go,goias,-14.7292,-49.7006
heitorai,go,goias,-15.719000000000001,-49.8268
hidrolandia,go,goias,-16.9626,-49.2265
hidrolina,go,goias,-14.7261,-49.4634
iaciara,go,goias,-14.1011,-46.6335
inaciolandia,go,goias,-18.4869,-49.9888
indiara,go,goias,-17.1387,-49.9862
inhumas,go,goias,-16.3611,-49.5001
ipameri,go,goias,-17.7215,-48.1581
ipiranga de goias,go,goias,-15.1689,-49.6695
ipora,go,goias,-16.4398,-51.118
israelandia,go,goias,-16.3144,-50.9087
itaberai,go,goias,-16.0206,-49.806000000000004
itaguari,go,goias,-15.918,-49.6071
itaguaru,go,goias,-15.7565,-49.6354
itaja,go,goias,-19.0673,-51.5495
itapaci,go,goias,-14.9522,-49.5511
itapirapua,go,goias,-15.8205,-50.6094
itapuranga,go,goias,-15.5606,-49.949
itaruma,go,goias,-18.7646,-51.3485
itaucu,go,goias,-16.2029,-49.6109
itumbiara,go,goias,-18.4093,-49.2158
ivolandia,go,goias,-16.5995,-50.7921
jandaia,go,goias,-17.0481,-50.1453
jaragua,go,goias,-15.7529,-49.3344
jatai,go,goias,-17.8784,-51.7204
jaupaci,go,goias,-16.1773,-50.9508
jesupolis,go,goias,-15.9484,-49.3739
joviania,go,goias,-17.802,-49.6197
jussara,go,goias,-15.8659,-50.8668
lagoa santa,go,goias,-19.1832,-51.3998
leopoldo de bulhoes,go,goias,-16.619,-48.7428
luziania,go,goias,-16.253,-47.95
mairipotaba,go,goias,-17.2975,-49.4898
mambai,go,goias,-14.4823,-46.1165
mara rosa,go,goias,-14.0148,-49.1777
marzagao,go,goias,-17.983,-48.6415
matrincha,go,goias,-15.4342,-50.7456
maurilandia,go,goias,-17.9719,-50.3388
mimoso de goias,go,goias,-15.0515,-48.1611
minacu,go,goias,-13.5304,-48.2206
mineiros,go,goias,-17.5654,-52.5537
moipora,go,goias,-16.5434,-50.739
monte alegre de goias,go,goias,-13.2552,-46.8928
montes claros de goias,go,goias,-16.0059,-51.3979
montividiu,go,goias,-17.4439,-51.1728
montividiu do norte,go,goias,-13.3485,-48.6853
morrinhos,go,goias,-17.7334,-49.1059
morro agudo de goias,go,goias,-15.3184,-50.0553
mossamedes,go,goias,-16.124000000000002,-50.2136
mozarlandia,go,goias,-14.7457,-50.5713
mundo novo,go,goias,-13.7729,-50.2814
mutunopolis,go,goias,-13.7303,-49.2745
nazario,go,goias,-16.5808,-49.8817
neropolis,go,goias,-16.4047,-49.2227
niquelandia,go,goias,-14.4662,-48.4599
nova america,go,goias,-15.0206,-49.8953
nova aurora,go,goias,-18.0597,-48.2552
nova crixas,go,goias,-14.0957,-50.33
nova gloria,go,goias,-15.145,-49.5737
nova iguacu de goias,go,goias,-14.2868,-49.3872
nova roma,go,goias,-13.7388,-46.8734
nova veneza,go,goias,-16.3695,-49.3168
novo brasil,go,goias,-16.0313,-50.7113
novo gama,go,goias,-16.0592,-48.0417
novo planalto,go,goias,-13.2424,-49.506
orizona,go,goias,-17.0334,-48.2964
ouro verde de goias,go,goias,-16.2181,-49.1942
ouvidor,go,goias,-18.2277,-47.8355
padre bernardo,go,goias,-15.1605,-48.2833
palestina de goias,go,goias,-16.7392,-51.5309
palmeiras de goias,go,goias,-16.8044,-49.924
palmelo,go,goias,-17.3258,-48.426
palminopolis,go,goias,-16.7924,-50.1652
panama,go,goias,-18.1783,-49.355
paranaiguara,go,goias,-18.9141,-50.6539
parauna,go,goias,-16.9463,-50.4484
perolandia,go,goias,-17.5258,-52.065
petrolina de goias,go,goias,-16.0968,-49.3364
pilar de goias,go,goias,-14.7608,-49.5784
piracanjuba,go,goias,-17.302,-49.016999999999996
piranhas,go,goias,-16.4258,-51.8235
pirenopolis,go,goias,-15.8507,-48.9584
pires do rio,go,goias,-17.3019,-48.2768
planaltina,go,goias,-15.452,-47.6089
pontalina,go,goias,-17.5225,-49.4489
porangatu,go,goias,-13.4391,-49.1503
porteirao,go,goias,-17.8143,-50.1653
portelandia,go,goias,-17.3554,-52.6799
posse,go,goias,-14.0859,-46.3704
professor jamil,go,goias,-17.2497,-49.244
quirinopolis,go,goias,-18.4472,-50.4547
rialma,go,goias,-15.3145,-49.5814
rianapolis,go,goias,-15.4456,-49.5114
rio quente,go,goias,-17.774,-48.7725
rio verde,go,goias,-17.7923,-50.9192
rubiataba,go,goias,-15.1617,-49.8048
sanclerlandia,go,goias,-16.197,-50.3124
santa barbara de goias,go,goias,-16.5714,-49.6954
santa cruz de goias,go,goias,-17.3155,-48.4809
santa fe de goias,go,goias,-15.7664,-51.1037
santa helena de goias,go,goias,-17.8115,-50.5977
santa isabel,go,goias,-15.2958,-49.4259
santa rita do araguaia,go,goias,-17.3269,-53.2012
santa rita do novo destino,go,goias,-15.1351,-49.1203
santa rosa de goias,go,goias,-16.084,-49.4953
santa tereza de goias,go,goias,-13.7138,-49.0144
santa terezinha de goias,go,goias,-14.4326,-49.7091
santo antonio da barra,go,goias,-17.5585,-50.6345
santo antonio de goias,go,goias,-16.4815,-49.3096
santo antonio do descoberto,go,goias,-15.9412,-48.2578
sao domingos,go,goias,-13.620999999999999,-46.7415
sao francisco de goias,go,goias,-15.9256,-49.2605
sao joao dalianca,go,goias,-14.7048,-47.5228
sao joao da parauna,go,goias,-16.8126,-50.4092
sao luis de montes belos,go,goias,-16.5211,-50.3726
sao luiz do norte,go,goias,-14.8608,-49.3285
sao miguel do araguaia,go,goias,-13.2731,-50.1634
sao miguel do passa quatro,go,goias,-17.0582,-48.662
sao patricio,go,goias,-15.35,-49.818000000000005
sao simao,go,goias,-18.996,-50.547
senador canedo,go,goias,-16.7084,-49.0914
serranopolis,go,goias,-18.3067,-51.9586
silvania,go,goias,-16.66,-48.6083
simolandia,go,goias,-14.4644,-46.4847
sitio dabadia,go,goias,-14.7992,-46.2506
taquaral de goias,go,goias,-16.0521,-49.6039
teresina de goias,go,goias,-13.7801,-47.2659
terezopolis de goias,go,goias,-16.3945,-49.0797
tres ranchos,go,goias,-18.3539,-47.776
trindade,go,goias,-16.6517,-49.4927
trombas,go,goias,-13.5079,-48.7417
turvania,go,goias,-16.6125,-50.1369
turvelandia,go,goias,-17.8502,-50.3024
uirapuru,go,goias,-14.2835,-49.9201
uruacu,go,goias,-14.5238,-49.1396
uruana,go,goias,-15.4993,-49.6861
urutai,go,goias,-17.4651,-48.2015
valparaiso de goias,go,goias,-16.0651,-47.9757
varjao,go,goias,-17.0471,-49.6312
vianopolis,go,goias,-16.7405,-48.5159
vicentinopolis,go,goias,-17.7322,-49.8047
vila boa,go,goias,-15.0387,-47.052
vila propicio,go,goias,-15.4542,-48.8819
acailandia,ma,maranhao,-4.94714,-47.5004
afonso cunha,ma,maranhao,-4.13631,-43.3275
agua doce do maranhao,ma,maranhao,-2.84048,-42.1189
alcantara,ma,maranhao,-2.39574,-44.4062
aldeias altas,ma,maranhao,-4.6262099999999995,-43.4689
altamira do maranhao,ma,maranhao,-4.16598,-45.4706
alto alegre do maranhao,ma,maranhao,-4.213,-44.446000000000005
alto alegre do pindare,ma,maranhao,-3.66689,-45.8421
alto parnaiba,ma,maranhao,-9.102730000000001,-45.9303
amapa do maranhao,ma,maranhao,-1.67524,-46.0024
amarante do maranhao,ma,maranhao,-5.56913,-46.7473
anajatuba,ma,maranhao,-3.26269,-44.6126
anapurus,ma,maranhao,-3.6757699999999995,-43.1014
apicumacu,ma,maranhao,-1.45862,-45.0864
araguana,ma,maranhao,-2.94644,-45.6589
araioses,ma,maranhao,-2.89091,-41.905
arame,ma,maranhao,-4.88347,-46.0032
arari,ma,maranhao,-3.45214,-44.7665
axixa,ma,maranhao,-2.8393900000000003,-44.062
bacabal,ma,maranhao,-4.224469999999999,-44.7832
bacabeira,ma,maranhao,-2.9645200000000003,-44.3164
bacuri,ma,maranhao,-1.6965,-45.1328
bacurituba,ma,maranhao,-2.71,-44.7329
balsas,ma,maranhao,-7.532139999999999,-46.0372
barao de grajau,ma,maranhao,-6.74463,-43.0261
barra do corda,ma,maranhao,-5.49682,-45.2485
barreirinhas,ma,maranhao,-2.75863,-42.8232
bela vista do maranhao,ma,maranhao,-3.7261800000000003,-45.3075
belagua,ma,maranhao,-3.15485,-43.5122
benedito leite,ma,maranhao,-7.210369999999999,-44.5577
bequimao,ma,maranhao,-2.44162,-44.7842
bernardo do mearim,ma,maranhao,-4.62666,-44.7608
boa vista do gurupi,ma,maranhao,-1.77614,-46.3002
bom jardim,ma,maranhao,-3.54129,-45.606
bom jesus das selvas,ma,maranhao,-4.476380000000001,-46.8641
bom lugar,ma,maranhao,-4.37311,-45.0326
brejo,ma,maranhao,-3.6779599999999997,-42.7527
brejo de areia,ma,maranhao,-4.334,-45.581
buriti,ma,maranhao,-3.9416900000000004,-42.9179
buriti bravo,ma,maranhao,-5.83239,-43.8353
buriticupu,ma,maranhao,-4.32375,-46.4409
buritirana,ma,maranhao,-5.59823,-47.0131
cachoeira grande,ma,maranhao,-2.93074,-44.0528
cajapio,ma,maranhao,-2.8732599999999997,-44.6741
cajari,ma,maranhao,-3.3274199999999996,-45.0145
campestre do maranhao,ma,maranhao,-6.17075,-47.3625
candido mendes,ma,maranhao,-1.43265,-45.7161
cantanhede,ma,maranhao,-3.6375699999999997,-44.383
capinzal do norte,ma,maranhao,-4.7236,-44.328
carolina,ma,maranhao,-7.335839999999999,-47.4634
carutapera,ma,maranhao,-1.19696,-46.0085
caxias,ma,maranhao,-4.86505,-43.3617
cedral,ma,maranhao,-2.00027,-44.5281
central do maranhao,ma,maranhao,-2.1983099999999998,-44.8254
centro do guilherme,ma,maranhao,-2.4489099999999997,-46.0345
centro novo do maranhao,ma,maranhao,-2.12696,-46.1228
chapadinha,ma,maranhao,-3.73875,-43.3538
cidelandia,ma,maranhao,-5.17465,-47.7781
codo,ma,maranhao,-4.45562,-43.8924
coelho neto,ma,maranhao,-4.25245,-43.0108
colinas,ma,maranhao,-6.03199,-44.2543
conceicao do lagoacu,ma,maranhao,-3.8514199999999996,-44.8895
coroata,ma,maranhao,-4.1344199999999995,-44.1244
cururupu,ma,maranhao,-1.81475,-44.8644
davinopolis,ma,maranhao,-5.54637,-47.4217
dom pedro,ma,maranhao,-5.03518,-44.4409
duque bacelar,ma,maranhao,-4.15002,-42.9477
esperantinopolis,ma,maranhao,-4.87938,-44.6926
estreito,ma,maranhao,-6.56077,-47.4431
feira nova do maranhao,ma,maranhao,-6.96508,-46.6786
fernando falcao,ma,maranhao,-6.16207,-44.8979
formosa da serra negra,ma,maranhao,-6.440169999999999,-46.1916
fortaleza dos nogueiras,ma,maranhao,-6.95983,-46.1749
fortuna,ma,maranhao,-5.72792,-44.1565
godofredo viana,ma,maranhao,-1.40259,-45.7795
goncalves dias,ma,maranhao,-5.1475,-44.3013
governador archer,ma,maranhao,-5.02078,-44.2754
governador edison lobao,ma,maranhao,-5.7497300000000005,-47.3646
governador eugenio barros,ma,maranhao,-5.318969999999999,-44.2469
governador luiz rocha,ma,maranhao,-5.47835,-44.0774
governador newton bello,ma,maranhao,-3.43245,-45.6619
governador nunes freire,ma,maranhao,-2.12899,-45.8777
graca aranha,ma,maranhao,-5.405469999999999,-44.3358
grajau,ma,maranhao,-5.81367,-46.1462
guimaraes,ma,maranhao,-2.12755,-44.602
humberto de campos,ma,maranhao,-2.59828,-43.4649
icatu,ma,maranhao,-2.7720599999999997,-44.0501
igarape do meio,ma,maranhao,-3.65771,-45.2114
igarape grande,ma,maranhao,-4.6625,-44.8558
imperatriz,ma,maranhao,-5.51847,-47.4777
itaipava do grajau,ma,maranhao,-5.142519999999999,-45.7877
itapecuru mirim,ma,maranhao,-3.40202,-44.3508
itinga do maranhao,ma,maranhao,-4.45293,-47.5235
jatoba,ma,maranhao,-5.82282,-44.2153
jenipapo dos vieiras,ma,maranhao,-5.362369999999999,-45.6356
joao lisboa,ma,maranhao,-5.443630000000001,-47.4064
joselandia,ma,maranhao,-4.98611,-44.6958
junco do maranhao,ma,maranhao,-1.8388799999999998,-46.09
lago da pedra,ma,maranhao,-4.56974,-45.1319
lago do junco,ma,maranhao,-4.609,-45.049
lago dos rodrigues,ma,maranhao,-4.6117300000000006,-44.9798
lago verde,ma,maranhao,-3.9466099999999997,-44.826
lagoa do mato,ma,maranhao,-6.05023,-43.5333
lagoa grande do maranhao,ma,maranhao,-4.98893,-45.3816
lajeado novo,ma,maranhao,-6.18539,-47.0293
lima campos,ma,maranhao,-4.51837,-44.4646
loreto,ma,maranhao,-7.081110000000001,-45.1451
luis domingues,ma,maranhao,-1.27492,-45.867
magalhaes de almeida,ma,maranhao,-3.39232,-42.2117
maracacume,ma,maranhao,-2.04918,-45.9587
maraja do sena,ma,maranhao,-4.62806,-45.4531
maranhaozinho,ma,maranhao,-2.24078,-45.8507
mata roma,ma,maranhao,-3.62035,-43.1112
matinha,ma,maranhao,-3.09849,-45.035
matoes,ma,maranhao,-5.51359,-43.2018
matoes do norte,ma,maranhao,-3.6244,-44.5468
milagres do maranhao,ma,maranhao,-3.5744300000000004,-42.6131
mirador,ma,maranhao,-6.3745400000000005,-44.3683
miranda do norte,ma,maranhao,-3.56313,-44.5814
mirinzal,ma,maranhao,-2.0709400000000002,-44.7787
moncao,ma,maranhao,-3.48125,-45.2496
montes altos,ma,maranhao,-5.83067,-47.0673
morros,ma,maranhao,-2.85379,-44.0357
nina rodrigues,ma,maranhao,-3.46788,-43.9134
nova colinas,ma,maranhao,-7.12263,-46.2607
nova iorque,ma,maranhao,-6.7304699999999995,-44.0471
nova olinda do maranhao,ma,maranhao,-2.84227,-45.6953
olho dagua das cunhas,ma,maranhao,-4.13417,-45.1163
olinda nova do maranhao,ma,maranhao,-2.99295,-44.9897
paco do lumiar,ma,maranhao,-2.51657,-44.1019
palmeirandia,ma,maranhao,-2.64433,-44.8933
paraibano,ma,maranhao,-6.4264,-43.9792
parnarama,ma,maranhao,-5.67365,-43.1011
passagem franca,ma,maranhao,-6.17745,-43.7755
pastos bons,ma,maranhao,-6.60296,-44.0745
paulino neves,ma,maranhao,-2.72094,-42.5258
paulo ramos,ma,maranhao,-4.44485,-45.2398
pedreiras,ma,maranhao,-4.56482,-44.6006
pedro do rosario,ma,maranhao,-2.9727200000000003,-45.3493
penalva,ma,maranhao,-3.27674,-45.1768
peri mirim,ma,maranhao,-2.5767599999999997,-44.8504
peritoro,ma,maranhao,-4.37459,-44.3369
pindaremirim,ma,maranhao,-3.60985,-45.342
pinheiro,ma,maranhao,-2.52224,-45.0788
pio xii,ma,maranhao,-3.89315,-45.1759
pirapemas,ma,maranhao,-3.7204099999999998,-44.2216
pocao de pedras,ma,maranhao,-4.7462599999999995,-44.9432
porto franco,ma,maranhao,-6.34149,-47.3962
porto rico do maranhao,ma,maranhao,-1.85925,-44.5842
presidente dutra,ma,maranhao,-5.2898,-44.495
presidente juscelino,ma,maranhao,-2.91872,-44.0715
presidente medici,ma,maranhao,-2.38991,-45.82
presidente sarney,ma,maranhao,-2.58799,-45.3595
presidente vargas,ma,maranhao,-3.4078699999999995,-44.0234
primeira cruz,ma,maranhao,-2.50568,-43.4232
raposa,ma,maranhao,-2.4254,-44.0973
riachao,ma,maranhao,-7.35819,-46.6225
ribamar fiquene,ma,maranhao,-5.93067,-47.3888
rosario,ma,maranhao,-2.93444,-44.2531
sambaiba,ma,maranhao,-7.134469999999999,-45.3515
santa filomena do maranhao,ma,maranhao,-5.49671,-44.5638
santa helena,ma,maranhao,-2.2442599999999997,-45.29
santa ines,ma,maranhao,-3.6511199999999997,-45.3774
santa luzia,ma,maranhao,-4.06873,-45.69
santa luzia do parua,ma,maranhao,-2.51123,-45.7801
santa quiteria do maranhao,ma,maranhao,-3.4930800000000004,-42.5688
santa rita,ma,maranhao,-3.14241,-44.3211
santana do maranhao,ma,maranhao,-3.109,-42.4064
santo amaro do maranhao,ma,maranhao,-2.50068,-43.238
santo antonio dos lopes,ma,maranhao,-4.86613,-44.3653
sao benedito do rio preto,ma,maranhao,-3.33515,-43.5287
sao bento,ma,maranhao,-2.69781,-44.8289
sao bernardo,ma,maranhao,-3.3722300000000005,-42.4191
sao domingos do azeitao,ma,maranhao,-6.814710000000001,-44.6509
sao domingos do maranhao,ma,maranhao,-5.58095,-44.3822
sao felix de balsas,ma,maranhao,-7.07535,-44.8092
sao francisco do brejao,ma,maranhao,-5.12584,-47.388999999999996
sao francisco do maranhao,ma,maranhao,-6.25159,-42.8668
sao joao batista,ma,maranhao,-2.95398,-44.7953
sao joao do caru,ma,maranhao,-3.5503,-46.2507
sao joao do paraiso,ma,maranhao,-6.45634,-47.0594
sao joao do soter,ma,maranhao,-5.10821,-43.8163
sao joao dos patos,ma,maranhao,-6.4934,-43.7036
sao jose de ribamar,ma,maranhao,-2.54704,-44.0597
sao jose dos basilios,ma,maranhao,-5.054930000000001,-44.5809
sao luis,ma,maranhao,-2.53874,-44.2825
sao luis gonzaga do maranhao,ma,maranhao,-4.38541,-44.6654
sao mateus do maranhao,ma,maranhao,-4.03736,-44.4707
sao pedro da agua branca,ma,maranhao,-5.08472,-48.4291
sao pedro dos crentes,ma,maranhao,-6.82389,-46.5319
sao raimundo das mangabeiras,ma,maranhao,-7.0218300000000005,-45.4809
sao raimundo do doca bezerra,ma,maranhao,-5.110530000000001,-45.0696
sao roberto,ma,maranhao,-5.0231,-45.001000000000005
sao vicente ferrer,ma,maranhao,-2.89487,-44.8681
satubinha,ma,maranhao,-4.04913,-45.2457
senador alexandre costa,ma,maranhao,-5.25096,-44.0533
senador la rocque,ma,maranhao,-5.4461,-47.2959
serrano do maranhao,ma,maranhao,-1.8522900000000002,-45.1207
sitio novo,ma,maranhao,-5.87601,-46.7033
sucupira do norte,ma,maranhao,-6.47839,-44.1919
sucupira do riachao,ma,maranhao,-6.408580000000001,-43.5455
tasso fragoso,ma,maranhao,-8.4662,-45.7536
timbiras,ma,maranhao,-4.25597,-43.931999999999995
timon,ma,maranhao,-5.09769,-42.8329
trizidela do vale,ma,maranhao,-4.538,-44.628
tufilandia,ma,maranhao,-3.67355,-45.6238
tuntum,ma,maranhao,-5.25476,-44.6444
turiacu,ma,maranhao,-1.65893,-45.3798
turilandia,ma,maranhao,-2.21638,-45.3044
tutoia,ma,maranhao,-2.7614099999999997,-42.2755
urbano santos,ma,maranhao,-3.20642,-43.3878
vargem grande,ma,maranhao,-3.5363900000000004,-43.917
viana,ma,maranhao,-3.20451,-44.9912
vila nova dos martirios,ma,maranhao,-5.18889,-48.1336
vitoria do mearim,ma,maranhao,-3.45125,-44.8643
vitorino freire,ma,maranhao,-4.28184,-45.2505
ze doca,ma,maranhao,-3.27014,-45.6553
abadia dos dourados,mg,minas gerais,-18.4831,-47.3916
abaete,mg,minas gerais,-19.1551,-45.4444
abre campo,mg,minas gerais,-20.2996,-42.4743
acaiaca,mg,minas gerais,-20.359,-43.1439
acucena,mg,minas gerais,-19.0671,-42.5419
agua boa,mg,minas gerais,-17.9914,-42.3806
agua comprida,mg,minas gerais,-20.0576,-48.1069
aguanil,mg,minas gerais,-20.9439,-45.3915
aguas formosas,mg,minas gerais,-17.0802,-40.9384
aguas vermelhas,mg,minas gerais,-15.7431,-41.4571
aimores,mg,minas gerais,-19.5007,-41.0746
aiuruoca,mg,minas gerais,-21.9736,-44.6042
alagoa,mg,minas gerais,-22.171,-44.6413
albertina,mg,minas gerais,-22.2018,-46.6139
alem paraiba,mg,minas gerais,-21.8797,-42.7176
alfenas,mg,minas gerais,-21.4256,-45.9477
alfredo vasconcelos,mg,minas gerais,-21.1535,-43.7718
almenara,mg,minas gerais,-16.1785,-40.6942
alpercata,mg,minas gerais,-18.974,-41.97
alpinopolis,mg,minas gerais,-20.8631,-46.3878
alterosa,mg,minas gerais,-21.2488,-46.1387
alto caparao,mg,minas gerais,-20.430999999999997,-41.8738
alto jequitiba,mg,minas gerais,-20.4208,-41.967
alto rio doce,mg,minas gerais,-21.0281,-43.4067
alvarenga,mg,minas gerais,-19.4174,-41.7317
alvinopolis,mg,minas gerais,-20.1098,-43.0535
alvorada de minas,mg,minas gerais,-18.7334,-43.3638
amparo do serra,mg,minas gerais,-20.5051,-42.8009
andradas,mg,minas gerais,-22.0695,-46.5724
andrelandia,mg,minas gerais,-21.7411,-44.3117
angelandia,mg,minas gerais,-17.7279,-42.2641
antonio carlos,mg,minas gerais,-21.320999999999998,-43.7451
antonio dias,mg,minas gerais,-19.6491,-42.8732
antonio prado de minas,mg,minas gerais,-21.0192,-42.1109
aracai,mg,minas gerais,-19.1955,-44.2493
aracitaba,mg,minas gerais,-21.3446,-43.3736
aracuai,mg,minas gerais,-16.8523,-42.0637
araguari,mg,minas gerais,-18.6456,-48.1934
arantina,mg,minas gerais,-21.9102,-44.2555
araponga,mg,minas gerais,-20.6686,-42.5178
arapora,mg,minas gerais,-18.4357,-49.1847
arapua,mg,minas gerais,-19.0268,-46.1484
araujos,mg,minas gerais,-19.9405,-45.1671
araxa,mg,minas gerais,-19.5902,-46.9438
arceburgo,mg,minas gerais,-21.359,-46.9401
arcos,mg,minas gerais,-20.2863,-45.5373
areado,mg,minas gerais,-21.3572,-46.1421
argirita,mg,minas gerais,-21.6083,-42.8292
aricanduva,mg,minas gerais,-17.8666,-42.5533
arinos,mg,minas gerais,-15.9187,-46.1043
astolfo dutra,mg,minas gerais,-21.3184,-42.8572
ataleia,mg,minas gerais,-18.0438,-41.1149
augusto de lima,mg,minas gerais,-18.0997,-44.2655
baependi,mg,minas gerais,-21.956999999999997,-44.8874
baldim,mg,minas gerais,-19.2832,-43.9613
bambui,mg,minas gerais,-20.0166,-45.9754
bandeira,mg,minas gerais,-15.8783,-40.5622
bandeira do sul,mg,minas gerais,-21.7308,-46.3833
barao de cocais,mg,minas gerais,-19.9389,-43.4755
barao de monte alto,mg,minas gerais,-21.2444,-42.2372
barbacena,mg,minas gerais,-21.2214,-43.7703
barra longa,mg,minas gerais,-20.2869,-43.0402
barroso,mg,minas gerais,-21.1907,-43.972
bela vista de minas,mg,minas gerais,-19.8302,-43.0922
belmiro braga,mg,minas gerais,-21.944000000000003,-43.4084
belo horizonte,mg,minas gerais,-19.9102,-43.9266
belo oriente,mg,minas gerais,-19.2199,-42.4828
belo vale,mg,minas gerais,-20.4077,-44.0275
berilo,mg,minas gerais,-16.9567,-42.4606
berizal,mg,minas gerais,-15.61,-41.7432
bertopolis,mg,minas gerais,-17.059,-40.58
betim,mg,minas gerais,-19.9668,-44.2008
bias fortes,mg,minas gerais,-21.601999999999997,-43.7574
bicas,mg,minas gerais,-21.7232,-43.056000000000004
biquinhas,mg,minas gerais,-18.7754,-45.4974
boa esperanca,mg,minas gerais,-21.0927,-45.5612
bocaina de minas,mg,minas gerais,-22.1697,-44.3972
bocaiuva,mg,minas gerais,-17.1135,-43.8104
bom despacho,mg,minas gerais,-19.7386,-45.2622
bom jardim de minas,mg,minas gerais,-21.9479,-44.1885
bom jesus da penha,mg,minas gerais,-21.0148,-46.5174
bom jesus do amparo,mg,minas gerais,-19.7054,-43.4782
bom jesus do galho,mg,minas gerais,-19.836,-42.3165
bom repouso,mg,minas gerais,-22.4675,-46.144
bom sucesso,mg,minas gerais,-21.0329,-44.7537
bonfim,mg,minas gerais,-20.3302,-44.2366
bonfinopolis de minas,mg,minas gerais,-16.567999999999998,-45.9839
bonito de minas,mg,minas gerais,-15.3231,-44.7543
borda da mata,mg,minas gerais,-22.2707,-46.1653
botelhos,mg,minas gerais,-21.6412,-46.391000000000005
botumirim,mg,minas gerais,-16.8657,-43.0086
bras pires,mg,minas gerais,-20.8419,-43.2406
brasilandia de minas,mg,minas gerais,-16.9999,-46.0081
brasilia de minas,mg,minas gerais,-16.2104,-44.4299
braunas,mg,minas gerais,-19.0562,-42.7099
brazopolis,mg,minas gerais,-22.4743,-45.6166
brumadinho,mg,minas gerais,-20.151,-44.2007
bueno brandao,mg,minas gerais,-22.4383,-46.3491
buenopolis,mg,minas gerais,-17.8744,-44.1775
bugre,mg,minas gerais,-19.4231,-42.2552
buritis,mg,minas gerais,-15.6218,-46.4221
buritizeiro,mg,minas gerais,-17.3656,-44.9606
cabeceira grande,mg,minas gerais,-16.0335,-47.0862
cabo verde,mg,minas gerais,-21.4699,-46.3919
cachoeira da prata,mg,minas gerais,-19.521,-44.4544
cachoeira de minas,mg,minas gerais,-22.3511,-45.7809
cachoeira de pajeu,mg,minas gerais,-15.9688,-41.4948
cachoeira dourada,mg,minas gerais,-18.5161,-49.5039
caetanopolis,mg,minas gerais,-19.2971,-44.4189
caete,mg,minas gerais,-19.8826,-43.6704
caiana,mg,minas gerais,-20.6956,-41.9292
cajuri,mg,minas gerais,-20.7903,-42.7925
caldas,mg,minas gerais,-21.9183,-46.3843
camacho,mg,minas gerais,-20.6294,-45.1593
camanducaia,mg,minas gerais,-22.7515,-46.1494
cambui,mg,minas gerais,-22.6115,-46.0572
cambuquira,mg,minas gerais,-21.854,-45.2896
campanario,mg,minas gerais,-18.2427,-41.7355
campanha,mg,minas gerais,-21.836,-45.4004
campestre,mg,minas gerais,-21.7079,-46.2381
campina verde,mg,minas gerais,-19.5382,-49.4862
campo azul,mg,minas gerais,-16.5028,-44.8096
campo belo,mg,minas gerais,-20.8932,-45.2699
campo do meio,mg,minas gerais,-21.1127,-45.8273
campo florido,mg,minas gerais,-19.7631,-48.5716
campos altos,mg,minas gerais,-19.6914,-46.1725
campos gerais,mg,minas gerais,-21.237,-45.7569
cana verde,mg,minas gerais,-21.0232,-45.1801
canaa,mg,minas gerais,-20.6869,-42.6167
canapolis,mg,minas gerais,-18.7212,-49.2035
candeias,mg,minas gerais,-20.7692,-45.2765
cantagalo,mg,minas gerais,-18.5248,-42.6223
caparao,mg,minas gerais,-20.5289,-41.9061
capela nova,mg,minas gerais,-20.9179,-43.622
capelinha,mg,minas gerais,-17.6888,-42.5147
capetinga,mg,minas gerais,-20.6163,-47.0571
capim branco,mg,minas gerais,-19.5471,-44.1304
capinopolis,mg,minas gerais,-18.6862,-49.5706
capitao andrade,mg,minas gerais,-19.0748,-41.8614
capitao eneas,mg,minas gerais,-16.3265,-43.7084
capitolio,mg,minas gerais,-20.6164,-46.0493
caputira,mg,minas gerais,-20.1703,-42.2683
carai,mg,minas gerais,-17.1862,-41.7004
caranaiba,mg,minas gerais,-20.8707,-43.7417
carandai,mg,minas gerais,-20.9566,-43.81100000000001
carangola,mg,minas gerais,-20.7343,-42.0313
caratinga,mg,minas gerais,-19.7868,-42.1292
carbonita,mg,minas gerais,-17.5255,-43.0137
careacu,mg,minas gerais,-22.0424,-45.696000000000005
carlos chagas,mg,minas gerais,-17.6973,-40.7723
carmesia,mg,minas gerais,-19.0877,-43.1382
carmo da cachoeira,mg,minas gerais,-21.4633,-45.2201
carmo da mata,mg,minas gerais,-20.5575,-44.8735
carmo de minas,mg,minas gerais,-22.1204,-45.1307
carmo do cajuru,mg,minas gerais,-20.1912,-44.7664
carmo do paranaiba,mg,minas gerais,-18.991,-46.3167
carmo do rio claro,mg,minas gerais,-20.9736,-46.1149
carmopolis de minas,mg,minas gerais,-20.5396,-44.6336
carneirinho,mg,minas gerais,-19.6987,-50.6894
carrancas,mg,minas gerais,-21.4898,-44.6446
carvalhopolis,mg,minas gerais,-21.7735,-45.8421
carvalhos,mg,minas gerais,-22.0,-44.4632
casa grande,mg,minas gerais,-20.7925,-43.9343
cascalho rico,mg,minas gerais,-18.5772,-47.8716
cassia,mg,minas gerais,-20.5831,-46.9201
cataguases,mg,minas gerais,-21.3924,-42.6896
catas altas,mg,minas gerais,-20.0734,-43.4061
catas altas da noruega,mg,minas gerais,-20.6901,-43.4939
catuji,mg,minas gerais,-17.3018,-41.5276
catuti,mg,minas gerais,-15.3616,-42.9627
caxambu,mg,minas gerais,-21.9753,-44.9319
cedro do abaete,mg,minas gerais,-19.1458,-45.711999999999996
central de minas,mg,minas gerais,-18.7612,-41.3143
centralina,mg,minas gerais,-18.5852,-49.2014
chacara,mg,minas gerais,-21.6733,-43.215
chale,mg,minas gerais,-20.0453,-41.6897
chapada do norte,mg,minas gerais,-17.0881,-42.5392
chapada gaucha,mg,minas gerais,-15.3014,-45.6116
chiador,mg,minas gerais,-21.9996,-43.0617
cipotanea,mg,minas gerais,-20.9026,-43.3629
claraval,mg,minas gerais,-20.397000000000002,-47.2768
claro dos pocoes,mg,minas gerais,-17.082,-44.2061
claudio,mg,minas gerais,-20.4437,-44.7673
coimbra,mg,minas gerais,-20.8535,-42.8008
coluna,mg,minas gerais,-18.2311,-42.8352
comendador gomes,mg,minas gerais,-19.6973,-49.0789
comercinho,mg,minas gerais,-16.2963,-41.7945
conceicao da aparecida,mg,minas gerais,-21.096,-46.2049
conceicao da barra de minas,mg,minas gerais,-21.1316,-44.4729
conceicao das alagoas,mg,minas gerais,-19.9172,-48.3839
conceicao das pedras,mg,minas gerais,-22.1576,-45.4562
conceicao de ipanema,mg,minas gerais,-19.9326,-41.6908
conceicao do mato dentro,mg,minas gerais,-19.0344,-43.4221
conceicao do para,mg,minas gerais,-19.7456,-44.8945
conceicao do rio verde,mg,minas gerais,-21.8778,-45.086999999999996
conceicao dos ouros,mg,minas gerais,-22.4078,-45.7996
conego marinho,mg,minas gerais,-15.2892,-44.4181
confins,mg,minas gerais,-19.6282,-43.9931
congonhal,mg,minas gerais,-22.1488,-46.043
congonhas,mg,minas gerais,-20.4958,-43.851000000000006
congonhas do norte,mg,minas gerais,-18.8021,-43.6767
conquista,mg,minas gerais,-19.9312,-47.5492
conselheiro lafaiete,mg,minas gerais,-20.6634,-43.7846
conselheiro pena,mg,minas gerais,-19.1789,-41.4736
consolacao,mg,minas gerais,-22.5493,-45.9255
contagem,mg,minas gerais,-19.9321,-44.0539
coqueiral,mg,minas gerais,-21.1858,-45.4366
coracao de jesus,mg,minas gerais,-16.6841,-44.3635
cordisburgo,mg,minas gerais,-19.1224,-44.3224
cordislandia,mg,minas gerais,-21.7891,-45.6999
corinto,mg,minas gerais,-18.369,-44.4542
coroaci,mg,minas gerais,-18.6156,-42.2791
coromandel,mg,minas gerais,-18.4734,-47.1933
coronel fabriciano,mg,minas gerais,-19.5179,-42.6276
coronel murta,mg,minas gerais,-16.6148,-42.184
coronel pacheco,mg,minas gerais,-21.5898,-43.256
coronel xavier chaves,mg,minas gerais,-21.0277,-44.2206
corrego danta,mg,minas gerais,-19.8198,-45.9032
corrego do bom jesus,mg,minas gerais,-22.6269,-46.0241
corrego fundo,mg,minas gerais,-20.4474,-45.5617
corrego novo,mg,minas gerais,-19.8361,-42.3988
couto de magalhaes de minas,mg,minas gerais,-18.0727,-43.4648
crisolita,mg,minas gerais,-17.2381,-40.9184
cristais,mg,minas gerais,-20.8733,-45.5167
cristalia,mg,minas gerais,-16.715999999999998,-42.8571
cristiano otoni,mg,minas gerais,-20.8324,-43.8166
cristina,mg,minas gerais,-22.208000000000002,-45.2673
crucilandia,mg,minas gerais,-20.3923,-44.3334
cruzeiro da fortaleza,mg,minas gerais,-18.944000000000003,-46.6669
cruzilia,mg,minas gerais,-21.84,-44.8067
cuparaque,mg,minas gerais,-18.9648,-41.0986
curral de dentro,mg,minas gerais,-15.9327,-41.8557
curvelo,mg,minas gerais,-18.7527,-44.4303
datas,mg,minas gerais,-18.4478,-43.6591
delfim moreira,mg,minas gerais,-22.5036,-45.2792
delfinopolis,mg,minas gerais,-20.3468,-46.8456
delta,mg,minas gerais,-19.9721,-47.7841
descoberto,mg,minas gerais,-21.46,-42.9618
desterro de entre rios,mg,minas gerais,-20.665,-44.3334
desterro do melo,mg,minas gerais,-21.143,-43.5178
diamantina,mg,minas gerais,-18.2413,-43.6031
diogo de vasconcelos,mg,minas gerais,-20.4879,-43.1953
dionisio,mg,minas gerais,-19.8433,-42.7701
divinesia,mg,minas gerais,-20.9917,-43.0003
divino,mg,minas gerais,-20.6134,-42.1438
divino das laranjeiras,mg,minas gerais,-18.7755,-41.4781
divinolandia de minas,mg,minas gerais,-18.8004,-42.6103
divinopolis,mg,minas gerais,-20.1446,-44.8912
divisa alegre,mg,minas gerais,-15.7221,-41.3463
divisa nova,mg,minas gerais,-21.5092,-46.1904
divisopolis,mg,minas gerais,-15.7254,-40.9997
dom bosco,mg,minas gerais,-16.652,-46.2597
dom cavati,mg,minas gerais,-19.3735,-42.1121
dom joaquim,mg,minas gerais,-18.961,-43.2544
dom silverio,mg,minas gerais,-20.1627,-42.9627
dom vicoso,mg,minas gerais,-22.2511,-45.1643
dona eusebia,mg,minas gerais,-21.319000000000003,-42.806999999999995
dores de campos,mg,minas gerais,-21.1139,-44.0207
dores de guanhaes,mg,minas gerais,-19.0516,-42.9254
dores do indaia,mg,minas gerais,-19.4628,-45.5927
dores do turvo,mg,minas gerais,-20.9785,-43.1834
doresopolis,mg,minas gerais,-20.2868,-45.9007
douradoquara,mg,minas gerais,-18.4338,-47.5993
durande,mg,minas gerais,-20.2058,-41.7977
eloi mendes,mg,minas gerais,-21.6088,-45.5691
engenheiro caldas,mg,minas gerais,-19.2065,-42.0503
engenheiro navarro,mg,minas gerais,-17.2831,-43.946999999999996
entre folhas,mg,minas gerais,-19.6218,-42.2306
entre rios de minas,mg,minas gerais,-20.6706,-44.0654
ervalia,mg,minas gerais,-20.8403,-42.6544
esmeraldas,mg,minas gerais,-19.764,-44.3065
espera feliz,mg,minas gerais,-20.6508,-41.9119
espinosa,mg,minas gerais,-14.9249,-42.809
espirito santo do dourado,mg,minas gerais,-22.0454,-45.9548
estiva,mg,minas gerais,-22.4577,-46.0191
estrela dalva,mg,minas gerais,-21.7412,-42.4574
estrela do indaia,mg,minas gerais,-19.5169,-45.7859
estrela do sul,mg,minas gerais,-18.7399,-47.6956
eugenopolis,mg,minas gerais,-21.1002,-42.1878
ewbank da camara,mg,minas gerais,-21.5498,-43.5068
extrema,mg,minas gerais,-22.854,-46.3178
fama,mg,minas gerais,-21.4089,-45.8286
faria lemos,mg,minas gerais,-20.8097,-42.0213
felicio dos santos,mg,minas gerais,-18.0755,-43.2422
felisburgo,mg,minas gerais,-16.6348,-40.7605
felixlandia,mg,minas gerais,-18.7507,-44.9004
fernandes tourinho,mg,minas gerais,-19.1541,-42.0803
ferros,mg,minas gerais,-19.2343,-43.0192
fervedouro,mg,minas gerais,-20.726,-42.278999999999996
florestal,mg,minas gerais,-19.887999999999998,-44.4318
formiga,mg,minas gerais,-20.4618,-45.4268
formoso,mg,minas gerais,-14.9446,-46.2371
fortaleza de minas,mg,minas gerais,-20.8508,-46.711999999999996
fortuna de minas,mg,minas gerais,-19.5578,-44.4472
francisco badaro,mg,minas gerais,-16.9883,-42.3568
francisco dumont,mg,minas gerais,-17.3107,-44.2317
francisco sa,mg,minas gerais,-16.4827,-43.4896
franciscopolis,mg,minas gerais,-17.9578,-42.0094
frei gaspar,mg,minas gerais,-18.0709,-41.4325
frei inocencio,mg,minas gerais,-18.5556,-41.9121
frei lagonegro,mg,minas gerais,-18.1751,-42.7617
fronteira,mg,minas gerais,-20.2748,-49.1984
fronteira dos vales,mg,minas gerais,-16.8898,-40.923
fruta de leite,mg,minas gerais,-16.1225,-42.5288
frutal,mg,minas gerais,-20.0259,-48.9355
funilandia,mg,minas gerais,-19.3661,-44.06100000000001
galileia,mg,minas gerais,-19.0005,-41.5387
gameleiras,mg,minas gerais,-15.0829,-43.125
glaucilandia,mg,minas gerais,-16.8481,-43.692
goiabeira,mg,minas gerais,-18.9807,-41.2235
goiana,mg,minas gerais,-21.535999999999998,-43.1957
goncalves,mg,minas gerais,-22.6545,-45.8556
gonzaga,mg,minas gerais,-18.8196,-42.4769
gouveia,mg,minas gerais,-18.4519,-43.7423
governador valadares,mg,minas gerais,-18.8545,-41.9555
grao mogol,mg,minas gerais,-16.5662,-42.8923
grupiara,mg,minas gerais,-18.5003,-47.7318
guanhaes,mg,minas gerais,-18.7713,-42.9312
guape,mg,minas gerais,-20.7631,-45.9152
guaraciaba,mg,minas gerais,-20.5716,-43.0094
guaraciama,mg,minas gerais,-17.0142,-43.6675
guaranesia,mg,minas gerais,-21.3009,-46.7964
guarani,mg,minas gerais,-21.3563,-43.0328
guarara,mg,minas gerais,-21.7304,-43.0334
guardamor,mg,minas gerais,-17.7673,-47.0998
guaxupe,mg,minas gerais,-21.305,-46.7081
guidoval,mg,minas gerais,-21.155,-42.7887
guimarania,mg,minas gerais,-18.8425,-46.7901
guiricema,mg,minas gerais,-21.0098,-42.7207
gurinhata,mg,minas gerais,-19.2143,-49.7876
heliodora,mg,minas gerais,-22.0644,-45.5453
iapu,mg,minas gerais,-19.4387,-42.2147
ibertioga,mg,minas gerais,-21.433000000000003,-43.9639
ibia,mg,minas gerais,-19.4749,-46.5474
ibiai,mg,minas gerais,-16.8591,-44.9046
ibiracatu,mg,minas gerais,-15.6605,-44.1667
ibiraci,mg,minas gerais,-20.4611,-47.1222
ibirite,mg,minas gerais,-20.0252,-44.0569
ibitiura de minas,mg,minas gerais,-22.0604,-46.4368
ibituruna,mg,minas gerais,-21.1541,-44.7479
icarai de minas,mg,minas gerais,-16.214000000000002,-44.9034
igarape,mg,minas gerais,-20.0707,-44.2994
igaratinga,mg,minas gerais,-19.9476,-44.7063
iguatama,mg,minas gerais,-20.1776,-45.7111
ijaci,mg,minas gerais,-21.1738,-44.9233
ilicinea,mg,minas gerais,-20.9402,-45.8308
imbe de minas,mg,minas gerais,-19.6017,-41.9695
inconfidentes,mg,minas gerais,-22.3136,-46.3264
indaiabira,mg,minas gerais,-15.4911,-42.2005
indianopolis,mg,minas gerais,-19.0341,-47.9155
ingai,mg,minas gerais,-21.4024,-44.9152
inhapim,mg,minas gerais,-19.5476,-42.1147
inhauma,mg,minas gerais,-19.4898,-44.3934
inimutaba,mg,minas gerais,-18.7271,-44.3584
ipaba,mg,minas gerais,-19.4158,-42.4139
ipanema,mg,minas gerais,-19.7992,-41.7164
ipatinga,mg,minas gerais,-19.4703,-42.5476
ipiacu,mg,minas gerais,-18.6927,-49.9436
ipuiuna,mg,minas gerais,-22.1013,-46.1915
irai de minas,mg,minas gerais,-18.9819,-47.461000000000006
itabira,mg,minas gerais,-19.6239,-43.2312
itabirinha,mg,minas gerais,-18.5712,-41.233999999999995
itabirito,mg,minas gerais,-20.2501,-43.8038
itacambira,mg,minas gerais,-17.0625,-43.3069
itacarambi,mg,minas gerais,-15.089,-44.095
itaguara,mg,minas gerais,-20.3947,-44.4875
itaipe,mg,minas gerais,-17.4014,-41.6697
itajuba,mg,minas gerais,-22.4225,-45.4598
itamarandiba,mg,minas gerais,-17.8552,-42.8561
itamarati de minas,mg,minas gerais,-21.4179,-42.813
itambacuri,mg,minas gerais,-18.035,-41.683
itambe do mato dentro,mg,minas gerais,-19.4158,-43.3182
itamogi,mg,minas gerais,-21.0758,-47.04600000000001
itamonte,mg,minas gerais,-22.2859,-44.868
itanhandu,mg,minas gerais,-22.2942,-44.9382
itanhomi,mg,minas gerais,-19.1736,-41.863
itaobim,mg,minas gerais,-16.5571,-41.5017
itapagipe,mg,minas gerais,-19.9062,-49.3781
itapecerica,mg,minas gerais,-20.4704,-45.126999999999995
itapeva,mg,minas gerais,-22.7665,-46.2241
itatiaiucu,mg,minas gerais,-20.1983,-44.4211
itau de minas,mg,minas gerais,-20.7375,-46.7525
itauna,mg,minas gerais,-20.0818,-44.5801
itaverava,mg,minas gerais,-20.6769,-43.6141
itinga,mg,minas gerais,-16.61,-41.7672
itueta,mg,minas gerais,-19.3999,-41.1746
ituiutaba,mg,minas gerais,-18.9772,-49.4639
itumirim,mg,minas gerais,-21.3171,-44.8724
iturama,mg,minas gerais,-19.7276,-50.1966
itutinga,mg,minas gerais,-21.3,-44.6567
jaboticatubas,mg,minas gerais,-19.5119,-43.7373
jacinto,mg,minas gerais,-16.1428,-40.295
jacui,mg,minas gerais,-21.0137,-46.7359
jacutinga,mg,minas gerais,-22.285999999999998,-46.6166
jaguaracu,mg,minas gerais,-19.647000000000002,-42.7498
jaiba,mg,minas gerais,-15.3432,-43.6688
jampruca,mg,minas gerais,-18.461,-41.809
janauba,mg,minas gerais,-15.8022,-43.3132
januaria,mg,minas gerais,-15.4802,-44.3639
japaraiba,mg,minas gerais,-20.1442,-45.5015
japonvar,mg,minas gerais,-15.9891,-44.2758
jeceaba,mg,minas gerais,-20.5339,-43.9894
jenipapo de minas,mg,minas gerais,-17.0831,-42.2589
jequeri,mg,minas gerais,-20.4542,-42.6651
jequitai,mg,minas gerais,-17.229,-44.4376
jequitiba,mg,minas gerais,-19.2345,-44.0304
jequitinhonha,mg,minas gerais,-16.4375,-41.0117
jesuania,mg,minas gerais,-21.9887,-45.2911
joaima,mg,minas gerais,-16.6522,-41.0229
joanesia,mg,minas gerais,-19.1729,-42.6775
joao monlevade,mg,minas gerais,-19.8126,-43.1735
joao pinheiro,mg,minas gerais,-17.7398,-46.1715
joaquim felicio,mg,minas gerais,-17.758,-44.1643
jordania,mg,minas gerais,-15.9009,-40.1841
jose goncalves de minas,mg,minas gerais,-16.9053,-42.6014
jose raydan,mg,minas gerais,-18.2195,-42.4946
josenopolis,mg,minas gerais,-16.5417,-42.5151
juatuba,mg,minas gerais,-19.9448,-44.3451
juiz de fora,mg,minas gerais,-21.7595,-43.3398
juramento,mg,minas gerais,-16.8473,-43.5865
juruaia,mg,minas gerais,-21.2493,-46.5735
juvenilia,mg,minas gerais,-14.2662,-44.1597
ladainha,mg,minas gerais,-17.6279,-41.7488
lagamar,mg,minas gerais,-18.1759,-46.8063
lagoa da prata,mg,minas gerais,-20.0237,-45.5401
lagoa dos patos,mg,minas gerais,-16.977999999999998,-44.5754
lagoa dourada,mg,minas gerais,-20.9139,-44.0797
lagoa formosa,mg,minas gerais,-18.7715,-46.4012
lagoa grande,mg,minas gerais,-17.8323,-46.5165
lagoa santa,mg,minas gerais,-19.6397,-43.8932
lajinha,mg,minas gerais,-20.1539,-41.6228
lambari,mg,minas gerais,-21.9671,-45.3498
lamim,mg,minas gerais,-20.79,-43.4706
laranjal,mg,minas gerais,-21.3715,-42.4732
lassance,mg,minas gerais,-17.887,-44.5735
lavras,mg,minas gerais,-21.248,-45.0009
leandro ferreira,mg,minas gerais,-19.7193,-45.0279
leme do prado,mg,minas gerais,-17.0793,-42.6936
leopoldina,mg,minas gerais,-21.5296,-42.6421
liberdade,mg,minas gerais,-22.0275,-44.3208
lima duarte,mg,minas gerais,-21.8386,-43.7934
limeira do oeste,mg,minas gerais,-19.5512,-50.5815
lontra,mg,minas gerais,-15.9013,-44.306000000000004
luisburgo,mg,minas gerais,-20.4468,-42.0976
luislandia,mg,minas gerais,-16.1095,-44.5886
luminarias,mg,minas gerais,-21.5145,-44.9034
luz,mg,minas gerais,-19.7911,-45.6794
machacalis,mg,minas gerais,-17.0723,-40.7245
machado,mg,minas gerais,-21.6778,-45.9219
madre de deus de minas,mg,minas gerais,-21.483,-44.3287
malacacheta,mg,minas gerais,-17.8456,-42.0769
mamonas,mg,minas gerais,-15.0479,-42.9469
manga,mg,minas gerais,-14.7529,-43.9391
manhuacu,mg,minas gerais,-20.2572,-42.028
manhumirim,mg,minas gerais,-20.3591,-41.9589
mantena,mg,minas gerais,-18.7761,-40.9874
mar de espanha,mg,minas gerais,-21.8707,-43.0062
maravilhas,mg,minas gerais,-19.5076,-44.6779
maria da fe,mg,minas gerais,-22.3044,-45.3773
mariana,mg,minas gerais,-20.3765,-43.413999999999994
marilac,mg,minas gerais,-18.5079,-42.0822
mario campos,mg,minas gerais,-20.0582,-44.1883
maripa de minas,mg,minas gerais,-21.6979,-42.9546
marlieria,mg,minas gerais,-19.7096,-42.7327
marmelopolis,mg,minas gerais,-22.447,-45.1645
martinho campos,mg,minas gerais,-19.3306,-45.2434
martins soares,mg,minas gerais,-20.2546,-41.8786
mata verde,mg,minas gerais,-15.6869,-40.7366
materlandia,mg,minas gerais,-18.4699,-43.0579
mateus leme,mg,minas gerais,-19.9794,-44.4318
mathias lobato,mg,minas gerais,-18.59,-41.9166
matias barbosa,mg,minas gerais,-21.869,-43.3135
matias cardoso,mg,minas gerais,-14.8563,-43.9146
matipo,mg,minas gerais,-20.2873,-42.3401
mato verde,mg,minas gerais,-15.3944,-42.86
matozinhos,mg,minas gerais,-19.5543,-44.0868
matutina,mg,minas gerais,-19.2179,-45.9664
medeiros,mg,minas gerais,-19.9865,-46.2181
medina,mg,minas gerais,-16.2245,-41.4728
mendes pimentel,mg,minas gerais,-18.6631,-41.4052
merces,mg,minas gerais,-21.1976,-43.3337
mesquita,mg,minas gerais,-19.224,-42.6079
minas novas,mg,minas gerais,-17.2156,-42.5884
minduri,mg,minas gerais,-21.6797,-44.6051
mirabela,mg,minas gerais,-16.256,-44.1602
miradouro,mg,minas gerais,-20.8899,-42.3458
mirai,mg,minas gerais,-21.2021,-42.6122
miravania,mg,minas gerais,-14.7348,-44.4092
moeda,mg,minas gerais,-20.3399,-44.0509
moema,mg,minas gerais,-19.8387,-45.4127
monjolos,mg,minas gerais,-18.3245,-44.118
monsenhor paulo,mg,minas gerais,-21.7579,-45.5391
montalvania,mg,minas gerais,-14.4197,-44.3719
monte alegre de minas,mg,minas gerais,-18.869,-48.881
monte azul,mg,minas gerais,-15.1514,-42.8718
monte belo,mg,minas gerais,-21.3271,-46.3635
monte carmelo,mg,minas gerais,-18.7302,-47.4912
monte formoso,mg,minas gerais,-16.8691,-41.2473
monte santo de minas,mg,minas gerais,-21.1873,-46.9753
monte siao,mg,minas gerais,-22.4335,-46.573
montes claros,mg,minas gerais,-16.7282,-43.8578
montezuma,mg,minas gerais,-15.1702,-42.4941
morada nova de minas,mg,minas gerais,-18.5998,-45.3584
morro da garca,mg,minas gerais,-18.5356,-44.601000000000006
morro do pilar,mg,minas gerais,-19.2236,-43.3795
munhoz,mg,minas gerais,-22.6092,-46.361999999999995
muriae,mg,minas gerais,-21.13,-42.3693
mutum,mg,minas gerais,-19.8121,-41.4407
muzambinho,mg,minas gerais,-21.3692,-46.5213
nacip raydan,mg,minas gerais,-18.4544,-42.2481
nanuque,mg,minas gerais,-17.8481,-40.3533
naque,mg,minas gerais,-19.2291,-42.3312
natalandia,mg,minas gerais,-16.5021,-46.4874
natercia,mg,minas gerais,-22.1158,-45.5123
nazareno,mg,minas gerais,-21.2168,-44.6138
nepomuceno,mg,minas gerais,-21.2324,-45.235
ninheira,mg,minas gerais,-15.3148,-41.7564
nova belem,mg,minas gerais,-18.4925,-41.1107
nova era,mg,minas gerais,-19.7577,-43.0333
nova lima,mg,minas gerais,-19.9758,-43.8509
nova modica,mg,minas gerais,-18.4417,-41.4984
nova ponte,mg,minas gerais,-19.1461,-47.6779
nova porteirinha,mg,minas gerais,-15.7993,-43.2941
nova resende,mg,minas gerais,-21.1286,-46.4157
nova serrana,mg,minas gerais,-19.8713,-44.9847
nova uniao,mg,minas gerais,-19.6876,-43.583
novo cruzeiro,mg,minas gerais,-17.4654,-41.8826
novo oriente de minas,mg,minas gerais,-17.4089,-41.2194
novorizonte,mg,minas gerais,-16.0162,-42.4044
olaria,mg,minas gerais,-21.8598,-43.9356
olhos dagua,mg,minas gerais,-17.3982,-43.5719
olimpio noronha,mg,minas gerais,-22.0685,-45.2657
oliveira,mg,minas gerais,-20.6982,-44.82899999999999
oliveira fortes,mg,minas gerais,-21.3401,-43.4499
onca de pitangui,mg,minas gerais,-19.7276,-44.8058
oratorios,mg,minas gerais,-20.4298,-42.7977
orizania,mg,minas gerais,-20.5142,-42.1991
ouro branco,mg,minas gerais,-20.5263,-43.6962
ouro fino,mg,minas gerais,-22.2779,-46.3716
ouro preto,mg,minas gerais,-20.3796,-43.512
ouro verde de minas,mg,minas gerais,-18.0719,-41.2734
padre carvalho,mg,minas gerais,-16.3646,-42.5088
padre paraiso,mg,minas gerais,-17.0758,-41.4821
pai pedro,mg,minas gerais,-15.5271,-43.07
paineiras,mg,minas gerais,-18.8993,-45.5321
pains,mg,minas gerais,-20.3705,-45.6627
paiva,mg,minas gerais,-21.2913,-43.4088
palma,mg,minas gerais,-21.3748,-42.3123
palmopolis,mg,minas gerais,-16.7364,-40.4296
papagaios,mg,minas gerais,-19.4419,-44.7468
para de minas,mg,minas gerais,-19.8534,-44.6114
paracatu,mg,minas gerais,-17.2252,-46.8711
paraguacu,mg,minas gerais,-21.5465,-45.7374
paraisopolis,mg,minas gerais,-22.5539,-45.7803
paraopeba,mg,minas gerais,-19.2732,-44.4044
passa quatro,mg,minas gerais,-22.3871,-44.9709
passa tempo,mg,minas gerais,-20.6539,-44.4926
passavinte,mg,minas gerais,-22.2097,-44.2344
passabem,mg,minas gerais,-19.3509,-43.1383
passos,mg,minas gerais,-20.7193,-46.608999999999995
patis,mg,minas gerais,-16.0773,-44.0787
patos de minas,mg,minas gerais,-18.5699,-46.5013
patrocinio,mg,minas gerais,-18.9379,-46.9934
patrocinio do muriae,mg,minas gerais,-21.1544,-42.2125
paula candido,mg,minas gerais,-20.8754,-42.9752
paulistas,mg,minas gerais,-18.4276,-42.8628
pavao,mg,minas gerais,-17.4267,-41.0035
pecanha,mg,minas gerais,-18.5441,-42.5583
pedra azul,mg,minas gerais,-16.0086,-41.2909
pedra bonita,mg,minas gerais,-20.5219,-42.3304
pedra do anta,mg,minas gerais,-20.5968,-42.7123
pedra do indaia,mg,minas gerais,-20.2563,-45.2107
pedra dourada,mg,minas gerais,-20.8266,-42.1515
pedralva,mg,minas gerais,-22.2386,-45.4654
pedras de maria da cruz,mg,minas gerais,-15.6032,-44.391000000000005
pedrinopolis,mg,minas gerais,-19.2241,-47.4579
pedro leopoldo,mg,minas gerais,-19.6308,-44.0383
pedro teixeira,mg,minas gerais,-21.7076,-43.743
pequeri,mg,minas gerais,-21.8341,-43.1145
pequi,mg,minas gerais,-19.6284,-44.6604
perdigao,mg,minas gerais,-19.9411,-45.078
perdizes,mg,minas gerais,-19.3434,-47.2963
perdoes,mg,minas gerais,-21.0932,-45.0896
periquito,mg,minas gerais,-19.1573,-42.2333
pescador,mg,minas gerais,-18.357,-41.6006
piau,mg,minas gerais,-21.5096,-43.313
piedade de caratinga,mg,minas gerais,-19.7593,-42.0756
piedade de ponte nova,mg,minas gerais,-20.2438,-42.7379
piedade do rio grande,mg,minas gerais,-21.469,-44.1938
piedade dos gerais,mg,minas gerais,-20.4715,-44.2243
pimenta,mg,minas gerais,-20.4827,-45.8049
pingodagua,mg,minas gerais,-19.7287,-42.4095
pintopolis,mg,minas gerais,-16.0572,-45.1402
piracema,mg,minas gerais,-20.5089,-44.4783
pirajuba,mg,minas gerais,-19.9092,-48.7027
piranga,mg,minas gerais,-20.6834,-43.2967
pirangucu,mg,minas gerais,-22.5249,-45.4945
piranguinho,mg,minas gerais,-22.395,-45.5324
pirapetinga,mg,minas gerais,-21.6554,-42.3434
pirapora,mg,minas gerais,-17.3392,-44.934
pirauba,mg,minas gerais,-21.2825,-43.0172
pitangui,mg,minas gerais,-19.6741,-44.8964
piumhi,mg,minas gerais,-20.4762,-45.9589
planura,mg,minas gerais,-20.1376,-48.7
poco fundo,mg,minas gerais,-21.78,-45.9658
pocos de caldas,mg,minas gerais,-21.78,-46.5692
pocrane,mg,minas gerais,-19.6208,-41.6334
pompeu,mg,minas gerais,-19.2257,-45.0141
ponte nova,mg,minas gerais,-20.4111,-42.8978
ponto chique,mg,minas gerais,-16.6282,-45.0588
ponto dos volantes,mg,minas gerais,-16.7473,-41.5025
porteirinha,mg,minas gerais,-15.7404,-43.0281
porto firme,mg,minas gerais,-20.6642,-43.0834
pote,mg,minas gerais,-17.8077,-41.786
pouso alegre,mg,minas gerais,-22.2266,-45.9389
pouso alto,mg,minas gerais,-22.1964,-44.9748
prados,mg,minas gerais,-21.0597,-44.0778
prata,mg,minas gerais,-19.3086,-48.9276
pratapolis,mg,minas gerais,-20.7411,-46.8624
pratinha,mg,minas gerais,-19.739,-46.3755
presidente bernardes,mg,minas gerais,-20.7656,-43.1895
presidente juscelino,mg,minas gerais,-18.6401,-44.06
presidente kubitschek,mg,minas gerais,-18.6193,-43.5628
presidente olegario,mg,minas gerais,-18.4096,-46.4165
prudente de morais,mg,minas gerais,-19.4742,-44.1591
quartel geral,mg,minas gerais,-19.2703,-45.5569
queluzito,mg,minas gerais,-20.7416,-43.8851
raposos,mg,minas gerais,-19.9636,-43.8079
raul soares,mg,minas gerais,-20.1061,-42.4502
recreio,mg,minas gerais,-21.5289,-42.4676
reduto,mg,minas gerais,-20.2401,-41.9848
resende costa,mg,minas gerais,-20.9171,-44.2407
resplendor,mg,minas gerais,-19.3194,-41.2462
ressaquinha,mg,minas gerais,-21.0642,-43.7598
riachinho,mg,minas gerais,-16.2258,-45.9888
riacho dos machados,mg,minas gerais,-16.0091,-43.0488
ribeirao das neves,mg,minas gerais,-19.7621,-44.0844
ribeirao vermelho,mg,minas gerais,-21.1879,-45.0637
rio acima,mg,minas gerais,-20.0876,-43.7878
rio casca,mg,minas gerais,-20.2285,-42.6462
rio do prado,mg,minas gerais,-16.6056,-40.5714
rio doce,mg,minas gerais,-20.2412,-42.8995
rio espera,mg,minas gerais,-20.855,-43.4721
rio manso,mg,minas gerais,-20.2666,-44.3069
rio novo,mg,minas gerais,-21.4649,-43.1168
rio paranaiba,mg,minas gerais,-19.1861,-46.2455
rio pardo de minas,mg,minas gerais,-15.616,-42.5405
rio piracicaba,mg,minas gerais,-19.9284,-43.1829
rio pomba,mg,minas gerais,-21.2712,-43.1696
rio preto,mg,minas gerais,-22.0861,-43.8293
rio vermelho,mg,minas gerais,-18.2922,-43.0018
ritapolis,mg,minas gerais,-21.0276,-44.3204
rochedo de minas,mg,minas gerais,-21.6284,-43.0165
rodeiro,mg,minas gerais,-21.2035,-42.8586
romaria,mg,minas gerais,-18.8838,-47.5782
rosario da limeira,mg,minas gerais,-20.9812,-42.5112
rubelita,mg,minas gerais,-16.4053,-42.261
rubim,mg,minas gerais,-16.3775,-40.5397
sabara,mg,minas gerais,-19.884,-43.8263
sabinopolis,mg,minas gerais,-18.6653,-43.0752
sacramento,mg,minas gerais,-19.8622,-47.4508
salinas,mg,minas gerais,-16.1753,-42.2964
salto da divisa,mg,minas gerais,-16.0063,-39.9391
santa barbara,mg,minas gerais,-19.9604,-43.4101
santa barbara do leste,mg,minas gerais,-19.9753,-42.1457
santa barbara do monte verde,mg,minas gerais,-21.9592,-43.7027
santa barbara do tugurio,mg,minas gerais,-21.2431,-43.5607
santa cruz de minas,mg,minas gerais,-21.1241,-44.2202
santa cruz de salinas,mg,minas gerais,-16.0967,-41.7418
santa cruz do escalvado,mg,minas gerais,-20.2372,-42.8169
santa efigenia de minas,mg,minas gerais,-18.8235,-42.4388
santa fe de minas,mg,minas gerais,-16.6859,-45.4102
santa helena de minas,mg,minas gerais,-16.9707,-40.6727
santa juliana,mg,minas gerais,-19.3108,-47.5322
santa luzia,mg,minas gerais,-19.7548,-43.8497
santa margarida,mg,minas gerais,-20.3839,-42.2519
santa maria de itabira,mg,minas gerais,-19.4431,-43.1064
santa maria do salto,mg,minas gerais,-16.2479,-40.1512
santa maria do suacui,mg,minas gerais,-18.1896,-42.4139
santa rita de caldas,mg,minas gerais,-22.0292,-46.3385
santa rita de ibitipoca,mg,minas gerais,-21.5658,-43.9163
santa rita de jacutinga,mg,minas gerais,-22.1474,-44.0977
santa rita de minas,mg,minas gerais,-19.875999999999998,-42.1363
santa rita do itueto,mg,minas gerais,-19.3576,-41.3821
santa rita do sapucai,mg,minas gerais,-22.2461,-45.7034
santa rosa da serra,mg,minas gerais,-19.5186,-45.9611
santa vitoria,mg,minas gerais,-18.8414,-50.1208
santana da vargem,mg,minas gerais,-21.2449,-45.5005
santana de cataguases,mg,minas gerais,-21.2893,-42.5524
santana de pirapama,mg,minas gerais,-18.9962,-44.0409
santana do deserto,mg,minas gerais,-21.9512,-43.1583
santana do garambeu,mg,minas gerais,-21.5983,-44.105
santana do jacare,mg,minas gerais,-20.9007,-45.1285
santana do manhuacu,mg,minas gerais,-20.1031,-41.9278
santana do paraiso,mg,minas gerais,-19.3661,-42.5446
santana do riacho,mg,minas gerais,-19.1662,-43.722
santana dos montes,mg,minas gerais,-20.7868,-43.6949
santo antonio do amparo,mg,minas gerais,-20.943,-44.9176
santo antonio do aventureiro,mg,minas gerais,-21.7606,-42.8115
santo antonio do grama,mg,minas gerais,-20.3185,-42.6047
santo antonio do itambe,mg,minas gerais,-18.4609,-43.3006
santo antonio do jacinto,mg,minas gerais,-16.5332,-40.1817
santo antonio do monte,mg,minas gerais,-20.085,-45.2947
santo antonio do retiro,mg,minas gerais,-15.3393,-42.6171
santo antonio do rio abaixo,mg,minas gerais,-19.2374,-43.2604
santo hipolito,mg,minas gerais,-18.2968,-44.2229
santos dumont,mg,minas gerais,-21.4634,-43.5499
sao bento abade,mg,minas gerais,-21.5839,-45.0699
sao bras do suacui,mg,minas gerais,-20.6242,-43.9515
sao domingos das dores,mg,minas gerais,-19.5246,-42.0106
sao domingos do prata,mg,minas gerais,-19.8678,-42.971000000000004
sao felix de minas,mg,minas gerais,-18.5959,-41.4889
sao francisco,mg,minas gerais,-15.9514,-44.8593
sao francisco de paula,mg,minas gerais,-20.7036,-44.9838
sao francisco de sales,mg,minas gerais,-19.8611,-49.7727
sao francisco do gloria,mg,minas gerais,-20.7923,-42.2673
sao geraldo,mg,minas gerais,-20.9252,-42.8364
sao geraldo da piedade,mg,minas gerais,-18.8411,-42.2867
sao geraldo do baixio,mg,minas gerais,-18.9097,-41.363
sao goncalo do abaete,mg,minas gerais,-18.3315,-45.8265
sao goncalo do para,mg,minas gerais,-19.9822,-44.8593
sao goncalo do rio abaixo,mg,minas gerais,-19.8221,-43.36600000000001
sao goncalo do rio preto,mg,minas gerais,-18.0025,-43.3854
sao goncalo do sapucai,mg,minas gerais,-21.8932,-45.5893
sao gotardo,mg,minas gerais,-19.3087,-46.0465
sao joao batista do gloria,mg,minas gerais,-20.635,-46.508
sao joao da lagoa,mg,minas gerais,-16.8455,-44.3507
sao joao da mata,mg,minas gerais,-21.928,-45.9297
sao joao da ponte,mg,minas gerais,-15.9271,-44.0096
sao joao das missoes,mg,minas gerais,-14.8859,-44.0922
sao joao del rei,mg,minas gerais,-21.1311,-44.2526
sao joao do manhuacu,mg,minas gerais,-20.3933,-42.1533
sao joao do manteninha,mg,minas gerais,-18.723,-41.1628
sao joao do oriente,mg,minas gerais,-19.3384,-42.1575
sao joao do pacui,mg,minas gerais,-16.5373,-44.5134
sao joao do paraiso,mg,minas gerais,-15.3168,-42.0213
sao joao evangelista,mg,minas gerais,-18.548,-42.7655
sao joao nepomuceno,mg,minas gerais,-21.5381,-43.0069
sao joaquim de bicas,mg,minas gerais,-20.048,-44.2749
sao jose da barra,mg,minas gerais,-20.7178,-46.313
sao jose da lapa,mg,minas gerais,-19.6971,-43.9586
sao jose da safira,mg,minas gerais,-18.3243,-42.1431
sao jose da varginha,mg,minas gerais,-19.7006,-44.556000000000004
sao jose do alegre,mg,minas gerais,-22.3243,-45.5258
sao jose do divino,mg,minas gerais,-18.4793,-41.3907
sao jose do goiabal,mg,minas gerais,-19.9214,-42.7035
sao jose do jacuri,mg,minas gerais,-18.281,-42.6729
sao jose do mantimento,mg,minas gerais,-20.0058,-41.7486
sao lourenco,mg,minas gerais,-22.1166,-45.0506
sao miguel do anta,mg,minas gerais,-20.7067,-42.7174
sao pedro da uniao,mg,minas gerais,-21.131,-46.6123
sao pedro do suacui,mg,minas gerais,-18.3609,-42.5981
sao pedro dos ferros,mg,minas gerais,-20.1732,-42.5251
sao romao,mg,minas gerais,-16.3641,-45.0749
sao roque de minas,mg,minas gerais,-20.249000000000002,-46.3639
sao sebastiao da bela vista,mg,minas gerais,-22.1583,-45.7546
sao sebastiao da vargem alegre,mg,minas gerais,-19.7477,-43.3679
sao sebastiao do anta,mg,minas gerais,-19.5064,-41.985
sao sebastiao do maranhao,mg,minas gerais,-18.0873,-42.5659
sao sebastiao do oeste,mg,minas gerais,-20.2758,-45.0063
sao sebastiao do paraiso,mg,minas gerais,-20.9167,-46.9837
sao sebastiao do rio preto,mg,minas gerais,-19.2959,-43.1757
sao sebastiao do rio verde,mg,minas gerais,-22.2183,-44.9761
sao thome das letras,mg,minas gerais,-21.7218,-44.9849
sao tiago,mg,minas gerais,-20.9075,-44.5098
sao tomas de aquino,mg,minas gerais,-20.7791,-47.0962
sao vicente de minas,mg,minas gerais,-21.7042,-44.4431
sapucaimirim,mg,minas gerais,-22.7409,-45.738
sardoa,mg,minas gerais,-18.7828,-42.3629
sarzedo,mg,minas gerais,-20.0367,-44.1446
sempeixe,mg,minas gerais,-20.1008,-42.8483
senador amaral,mg,minas gerais,-22.5869,-46.1763
senador cortes,mg,minas gerais,-21.7986,-42.9424
senador firmino,mg,minas gerais,-20.9158,-43.0904
senador jose bento,mg,minas gerais,-22.1633,-46.1792
senador modestino goncalves,mg,minas gerais,-17.9465,-43.2172
senhora de oliveira,mg,minas gerais,-20.7972,-43.3394
senhora do porto,mg,minas gerais,-18.8909,-43.0799
senhora dos remedios,mg,minas gerais,-21.0351,-43.5812
sericita,mg,minas gerais,-20.4748,-42.4828
seritinga,mg,minas gerais,-21.9134,-44.518
serra azul de minas,mg,minas gerais,-18.3602,-43.1675
serra da saudade,mg,minas gerais,-19.4447,-45.795
serra do salitre,mg,minas gerais,-19.1083,-46.6961
serra dos aimores,mg,minas gerais,-17.7872,-40.2453
serrania,mg,minas gerais,-21.5441,-46.0417
serranopolis de minas,mg,minas gerais,-15.8176,-42.8732
serranos,mg,minas gerais,-21.8857,-44.5125
serro,mg,minas gerais,-18.5991,-43.3744
sete lagoas,mg,minas gerais,-19.4569,-44.2413
setubinha,mg,minas gerais,-17.6002,-42.1587
silveirania,mg,minas gerais,-21.1615,-43.2128
silvianopolis,mg,minas gerais,-22.0274,-45.8385
simao pereira,mg,minas gerais,-21.964000000000002,-43.3088
simonesia,mg,minas gerais,-20.1341,-42.0091
sobralia,mg,minas gerais,-19.2345,-42.0998
soledade de minas,mg,minas gerais,-22.0554,-45.0464
tabuleiro,mg,minas gerais,-21.3632,-43.2381
taiobeiras,mg,minas gerais,-15.8106,-42.2259
taparuba,mg,minas gerais,-19.7621,-41.608000000000004
tapira,mg,minas gerais,-19.9166,-46.8264
tapirai,mg,minas gerais,-19.8936,-46.0221
taquaracu de minas,mg,minas gerais,-19.6652,-43.6922
tarumirim,mg,minas gerais,-19.2835,-42.0097
teixeiras,mg,minas gerais,-20.6561,-42.8564
teofilo otoni,mg,minas gerais,-17.8595,-41.5087
timoteo,mg,minas gerais,-19.5811,-42.6471
tiradentes,mg,minas gerais,-21.1102,-44.1744
tiros,mg,minas gerais,-19.0037,-45.9626
tocantins,mg,minas gerais,-21.1774,-43.0127
tocos do moji,mg,minas gerais,-22.3698,-46.0971
toledo,mg,minas gerais,-22.7421,-46.3728
tombos,mg,minas gerais,-20.9086,-42.0228
tres coracoes,mg,minas gerais,-21.6921,-45.2511
tres marias,mg,minas gerais,-18.2048,-45.2473
tres pontas,mg,minas gerais,-21.3694,-45.5109
tumiritinga,mg,minas gerais,-18.9844,-41.6527
tupaciguara,mg,minas gerais,-18.5866,-48.6985
turmalina,mg,minas gerais,-17.2828,-42.7285
turvolandia,mg,minas gerais,-21.8733,-45.7859
uba,mg,minas gerais,-21.1204,-42.9359
ubai,mg,minas gerais,-16.2885,-44.7783
ubaporanga,mg,minas gerais,-19.6351,-42.1059
uberaba,mg,minas gerais,-19.7472,-47.9381
uberlandia,mg,minas gerais,-18.9141,-48.2749
umburatiba,mg,minas gerais,-17.2548,-40.5779
unai,mg,minas gerais,-16.3592,-46.9022
uniao de minas,mg,minas gerais,-19.5299,-50.338
uruana de minas,mg,minas gerais,-16.0634,-46.2443
urucania,mg,minas gerais,-20.3521,-42.736999999999995
urucuia,mg,minas gerais,-16.1244,-45.7352
vargem alegre,mg,minas gerais,-19.5988,-42.2949
vargem bonita,mg,minas gerais,-20.3333,-46.3688
vargem grande do rio pardo,mg,minas gerais,-15.3987,-42.3085
varginha,mg,minas gerais,-21.5556,-45.4364
varjao de minas,mg,minas gerais,-18.3741,-46.0313
varzea da palma,mg,minas gerais,-17.5944,-44.7226
varzelandia,mg,minas gerais,-15.6992,-44.0278
vazante,mg,minas gerais,-17.9827,-46.9088
verdelandia,mg,minas gerais,-15.5845,-43.6121
veredinha,mg,minas gerais,-17.3974,-42.7307
verissimo,mg,minas gerais,-19.6657,-48.3118
vermelho novo,mg,minas gerais,-20.0406,-42.2688
vespasiano,mg,minas gerais,-19.6883,-43.9239
vicosa,mg,minas gerais,-20.7559,-42.8742
vieiras,mg,minas gerais,-20.866999999999997,-42.2401
virgem da lapa,mg,minas gerais,-16.807000000000002,-42.3431
virginia,mg,minas gerais,-22.3264,-45.0965
virginopolis,mg,minas gerais,-18.8154,-42.7015
virgolandia,mg,minas gerais,-18.4738,-42.3067
visconde do rio branco,mg,minas gerais,-21.0127,-42.8361
volta grande,mg,minas gerais,-21.7671,-42.5375
wenceslau braz,mg,minas gerais,-22.5368,-45.3626
agua clara,ms,mato grosso do sul,-20.4452,-52.879
alcinopolis,ms,mato grosso do sul,-18.3255,-53.7042
amambai,ms,mato grosso do sul,-23.1058,-55.2253
anastacio,ms,mato grosso do sul,-20.4823,-55.8104
anaurilandia,ms,mato grosso do sul,-22.1852,-52.7191
angelica,ms,mato grosso do sul,-22.1527,-53.7708
antonio joao,ms,mato grosso do sul,-22.1927,-55.9517
aparecida do taboado,ms,mato grosso do sul,-20.0873,-51.0961
aquidauana,ms,mato grosso do sul,-20.4666,-55.7868
aral moreira,ms,mato grosso do sul,-22.9385,-55.6334
bandeirantes,ms,mato grosso do sul,-19.9275,-54.3585
bataguassu,ms,mato grosso do sul,-21.7159,-52.4221
bataypora,ms,mato grosso do sul,-22.2944,-53.2705
bela vista,ms,mato grosso do sul,-22.1073,-56.5263
bodoquena,ms,mato grosso do sul,-20.537,-56.7127
bonito,ms,mato grosso do sul,-21.1261,-56.4836
brasilandia,ms,mato grosso do sul,-21.2544,-52.0365
caarapo,ms,mato grosso do sul,-22.6368,-54.8209
camapua,ms,mato grosso do sul,-19.5347,-54.0431
campo grande,ms,mato grosso do sul,-20.4486,-54.6295
caracol,ms,mato grosso do sul,-22.011,-57.0277
cassilandia,ms,mato grosso do sul,-19.1179,-51.7313
chapadao do sul,ms,mato grosso do sul,-18.788,-52.6263
corguinho,ms,mato grosso do sul,-19.8243,-54.8281
coronel sapucaia,ms,mato grosso do sul,-23.2724,-55.5278
corumba,ms,mato grosso do sul,-19.0077,-57.651
costa rica,ms,mato grosso do sul,-18.5432,-53.1287
coxim,ms,mato grosso do sul,-18.5013,-54.751000000000005
deodapolis,ms,mato grosso do sul,-22.2763,-54.1682
dois irmaos do buriti,ms,mato grosso do sul,-20.6848,-55.2915
douradina,ms,mato grosso do sul,-22.0405,-54.6158
dourados,ms,mato grosso do sul,-22.2231,-54.812
eldorado,ms,mato grosso do sul,-23.7868,-54.2838
fatima do sul,ms,mato grosso do sul,-22.3789,-54.5131
figueirao,ms,mato grosso do sul,-18.6782,-53.638000000000005
gloria de dourados,ms,mato grosso do sul,-22.4136,-54.2335
guia lopes da laguna,ms,mato grosso do sul,-21.4583,-56.1117
iguatemi,ms,mato grosso do sul,-23.6736,-54.5637
inocencia,ms,mato grosso do sul,-19.7277,-51.9281
itapora,ms,mato grosso do sul,-22.08,-54.7934
itaquirai,ms,mato grosso do sul,-23.4779,-54.187
ivinhema,ms,mato grosso do sul,-22.3046,-53.8184
japora,ms,mato grosso do sul,-23.8903,-54.4059
jaraguari,ms,mato grosso do sul,-20.1386,-54.3996
jardim,ms,mato grosso do sul,-21.4799,-56.1489
jatei,ms,mato grosso do sul,-22.4806,-54.3079
juti,ms,mato grosso do sul,-22.8596,-54.6061
ladario,ms,mato grosso do sul,-19.0089,-57.5973
laguna carapa,ms,mato grosso do sul,-22.5448,-55.1502
maracaju,ms,mato grosso do sul,-21.6105,-55.1678
miranda,ms,mato grosso do sul,-20.2355,-56.3746
mundo novo,ms,mato grosso do sul,-23.9355,-54.281000000000006
navirai,ms,mato grosso do sul,-23.0618,-54.1995
nioaque,ms,mato grosso do sul,-21.1419,-55.8296
nova alvorada do sul,ms,mato grosso do sul,-21.4657,-54.3825
nova andradina,ms,mato grosso do sul,-22.238000000000003,-53.3437
novo horizonte do sul,ms,mato grosso do sul,-22.6693,-53.8601
paraiso das aguas,ms,mato grosso do sul,-19.0216,-53.0116
